{
  "updated": "2026-04-28T16:41:47+08:00",
  "stations": [
    {
      "id": "-32.02718,115.95001",
      "name": "Burk Cannington",
      "brand": "Burk",
      "address": "1510 Albany Hwy",
      "suburb": "Beckenham",
      "lat": -32.027183,
      "lng": 115.950013
    },
    {
      "id": "-31.79903,115.84713",
      "name": "Burk Landsdale",
      "brand": "Burk",
      "address": "274 Gnangara Rd",
      "suburb": "Landsdale",
      "lat": -31.79903,
      "lng": 115.847126
    },
    {
      "id": "-32.20504,115.92611",
      "name": "Burk Oakford",
      "brand": "Burk",
      "address": "1526 Thomas Rd",
      "suburb": "Oakford",
      "lat": -32.205041,
      "lng": 115.926114
    },
    {
      "id": "-32.02205,115.95478",
      "name": "Liberty Beckenham",
      "brand": "Liberty",
      "address": "63 William St",
      "suburb": "Beckenham",
      "lat": -32.022054,
      "lng": 115.954779
    },
    {
      "id": "-31.86900,115.92444",
      "name": "Vibe Beechboro",
      "brand": "Vibe",
      "address": "495 Beechboro Rd North",
      "suburb": "Beechboro",
      "lat": -31.869,
      "lng": 115.924439
    },
    {
      "id": "-32.20931,115.95228",
      "name": "Vibe Oakford Truckstop",
      "brand": "Vibe",
      "address": "1780 Thomas Rd",
      "suburb": "Oakford",
      "lat": -32.209305,
      "lng": 115.952279
    },
    {
      "id": "-31.90111,115.95912",
      "name": "Burk Bassendean",
      "brand": "Burk",
      "address": "309 Guildford Rd",
      "suburb": "Bassendean",
      "lat": -31.901105,
      "lng": 115.959118
    },
    {
      "id": "-31.80276,115.83774",
      "name": "Liberty Landsdale",
      "brand": "Liberty",
      "address": "2 Cowle St",
      "suburb": "Landsdale",
      "lat": -31.802758,
      "lng": 115.837737
    },
    {
      "id": "-31.94038,115.95187",
      "name": "Costco Perth Airport",
      "brand": "Costco",
      "address": "142 Dunreath Dr",
      "suburb": "Perth Airport",
      "lat": -31.940377,
      "lng": 115.951869
    },
    {
      "id": "-32.23348,115.85371",
      "name": "Costco Casuarina",
      "brand": "Costco",
      "address": "137 Market St",
      "suburb": "Casuarina",
      "lat": -32.233481,
      "lng": 115.853714
    },
    {
      "id": "-31.62824,115.69118",
      "name": "Burk Alkimos",
      "brand": "Burk",
      "address": "12 Longstaff Ave",
      "suburb": "Alkimos",
      "lat": -31.628239,
      "lng": 115.69118
    },
    {
      "id": "-31.85578,115.89156",
      "name": "Burk Malaga",
      "brand": "Burk",
      "address": "1 Harlond Ave",
      "suburb": "Malaga",
      "lat": -31.855778,
      "lng": 115.891559
    },
    {
      "id": "-32.19543,115.78311",
      "name": "United Naval Base Truck Stop",
      "brand": "United",
      "address": "13 Lionel St",
      "suburb": "Naval Base",
      "lat": -32.195425,
      "lng": 115.783106
    },
    {
      "id": "-32.26019,115.80655",
      "name": "United Leda",
      "brand": "United",
      "address": "2 Feilman Dr",
      "suburb": "Leda",
      "lat": -32.260187,
      "lng": 115.806552
    },
    {
      "id": "-32.15817,116.00183",
      "name": "Vibe Armadale",
      "brand": "Vibe",
      "address": "126 Forrest Rd",
      "suburb": "Armadale",
      "lat": -32.158168,
      "lng": 116.001834
    },
    {
      "id": "-32.24460,115.81559",
      "name": "Vibe Kwinana Town Centre",
      "brand": "Vibe",
      "address": "6 Chisham Ave",
      "suburb": "Kwinana Town Centre",
      "lat": -32.244599,
      "lng": 115.815592
    },
    {
      "id": "-31.96136,115.99223",
      "name": "Vibe Forrestfield",
      "brand": "Vibe",
      "address": "159 Milner Rd",
      "suburb": "Forrestfield",
      "lat": -31.961356,
      "lng": 115.992227
    },
    {
      "id": "-31.65431,115.97425",
      "name": "Vibe Bullsbrook Northlink",
      "brand": "Vibe",
      "address": "1769 Neaves Rd",
      "suburb": "Bullsbrook",
      "lat": -31.654313,
      "lng": 115.974255
    },
    {
      "id": "-31.97362,116.05945",
      "name": "Vibe Kalamunda",
      "brand": "Vibe",
      "address": "7 Mead St",
      "suburb": "Kalamunda",
      "lat": -31.97362,
      "lng": 116.059448
    },
    {
      "id": "-31.80190,115.82752",
      "name": "Metro Wangara",
      "brand": "Metro Petroleum",
      "address": "79 Gnangara Rd",
      "suburb": "Wangara",
      "lat": -31.801903,
      "lng": 115.827519
    },
    {
      "id": "-32.63094,115.87256",
      "name": "Vibe Pinjarra",
      "brand": "Vibe",
      "address": "58 George St",
      "suburb": "Pinjarra",
      "lat": -32.63094,
      "lng": 115.872555
    },
    {
      "id": "-31.75138,115.80343",
      "name": "Vibe Wanneroo",
      "brand": "Vibe",
      "address": "964 Wanneroo Rd",
      "suburb": "Wanneroo",
      "lat": -31.751382,
      "lng": 115.803426
    },
    {
      "id": "-32.14685,115.92210",
      "name": "Vibe Piara Waters",
      "brand": "Vibe",
      "address": "386 Nicholson Rd",
      "suburb": "Piara Waters",
      "lat": -32.146852,
      "lng": 115.922099
    },
    {
      "id": "-32.24550,115.78259",
      "name": "Vibe Kwinana OPT",
      "brand": "Vibe",
      "address": "Cnr Mandurah Rd & Beach St",
      "suburb": "Kwinana Beach",
      "lat": -32.245503,
      "lng": 115.78259
    },
    {
      "id": "-31.90631,115.81374",
      "name": "Vibe Osborne Park",
      "brand": "Vibe",
      "address": "7 Hutton St",
      "suburb": "Osborne Park",
      "lat": -31.90631,
      "lng": 115.813744
    },
    {
      "id": "-32.11865,116.00256",
      "name": "Burk Camillo",
      "brand": "Burk",
      "address": "Cnr Westfield Rd & Ypres Rd",
      "suburb": "Camillo",
      "lat": -32.118652,
      "lng": 116.002556
    },
    {
      "id": "-31.83904,115.99066",
      "name": "Burk West Swan",
      "brand": "Burk",
      "address": "6639 West Swan Rd",
      "suburb": "West Swan",
      "lat": -31.839036,
      "lng": 115.990655
    },
    {
      "id": "-31.68697,115.78350",
      "name": "Vibe Neerabup",
      "brand": "Vibe",
      "address": "1 Pinnacle Dr",
      "suburb": "Neerabup",
      "lat": -31.686965,
      "lng": 115.783501
    },
    {
      "id": "-31.92589,115.88022",
      "name": "Burk Mount Lawley",
      "brand": "Burk",
      "address": "791 Beaufort St",
      "suburb": "Mount Lawley",
      "lat": -31.925887,
      "lng": 115.880225
    },
    {
      "id": "-32.07493,115.78093",
      "name": "United Hamilton Hill",
      "brand": "United",
      "address": "9 Winterfold Rd",
      "suburb": "Hamilton Hill",
      "lat": -32.074926,
      "lng": 115.780931
    },
    {
      "id": "-31.99005,115.93926",
      "name": "United Kewdale Truck Stop",
      "brand": "United",
      "address": "410-412 Orrong Rd",
      "suburb": "Kewdale",
      "lat": -31.990047,
      "lng": 115.939258
    },
    {
      "id": "-31.90484,115.80609",
      "name": "United Osborne Park",
      "brand": "United",
      "address": "479 Scarborough Beach Rd",
      "suburb": "Osborne Park",
      "lat": -31.904837,
      "lng": 115.80609
    },
    {
      "id": "-32.04621,115.81261",
      "name": "United Myaree",
      "brand": "United",
      "address": "182 Leach Hwy",
      "suburb": "Myaree",
      "lat": -32.046212,
      "lng": 115.812611
    },
    {
      "id": "-31.98781,115.90540",
      "name": "United East Victoria Park",
      "brand": "United",
      "address": "916 Albany Hwy",
      "suburb": "East Victoria Park",
      "lat": -31.98781,
      "lng": 115.905402
    },
    {
      "id": "-32.11148,115.83883",
      "name": "United South Lake",
      "brand": "United",
      "address": "49 Berrigan Dr",
      "suburb": "South Lake",
      "lat": -32.111481,
      "lng": 115.838833
    },
    {
      "id": "-31.71974,115.78341",
      "name": "United Tapping",
      "brand": "United",
      "address": "1369 Wanneroo Rd",
      "suburb": "Wanneroo",
      "lat": -31.719744,
      "lng": 115.783408
    },
    {
      "id": "-32.12114,115.95458",
      "name": "United Southern River",
      "brand": "United",
      "address": "Lot 101 Terrier Pl",
      "suburb": "Southern River",
      "lat": -32.121136,
      "lng": 115.954582
    },
    {
      "id": "-31.70322,115.79851",
      "name": "Liberty Banksia Grove",
      "brand": "Liberty",
      "address": "7 Honeybee Pde",
      "suburb": "Banksia Grove",
      "lat": -31.703225,
      "lng": 115.798512
    },
    {
      "id": "-32.62628,115.86960",
      "name": "Liberty Pinjarra",
      "brand": "Liberty",
      "address": "Cnr Pinjarra Rd & Carey St",
      "suburb": "Pinjarra",
      "lat": -32.626282,
      "lng": 115.869595
    },
    {
      "id": "-32.09380,115.80259",
      "name": "United Bibra Lake",
      "brand": "United",
      "address": "13 Whyalla Ct",
      "suburb": "Bibra Lake",
      "lat": -32.093798,
      "lng": 115.802588
    },
    {
      "id": "-32.61078,115.84804",
      "name": "United Pinjarra Truck Stop",
      "brand": "United",
      "address": "1602 Pinjarra Rd",
      "suburb": "Pinjarra",
      "lat": -32.610785,
      "lng": 115.848041
    },
    {
      "id": "-31.93821,115.99215",
      "name": "Shell High Wycombe",
      "brand": "Shell",
      "address": "1100 Abernethy Rd",
      "suburb": "High Wycombe",
      "lat": -31.938206,
      "lng": 115.992146
    },
    {
      "id": "-31.95637,115.96975",
      "name": "United Perth Airport Truck Stop",
      "brand": "United",
      "address": "8 Paltridge Rd",
      "suburb": "Perth Airport",
      "lat": -31.956366,
      "lng": 115.969749
    },
    {
      "id": "-32.27667,115.77340",
      "name": "Liberty East Rockingham",
      "brand": "Liberty",
      "address": "115 Dixon Rd",
      "suburb": "East Rockingham",
      "lat": -32.2766666,
      "lng": 115.773403
    },
    {
      "id": "-32.07522,116.00582",
      "name": "Liberty Gosnells",
      "brand": "Liberty",
      "address": "2341 Albany Hwy",
      "suburb": "Gosnells",
      "lat": -32.075216,
      "lng": 116.005816
    },
    {
      "id": "-31.72016,115.78390",
      "name": "Liberty Tapping",
      "brand": "Liberty",
      "address": "3 Herdsman Lane",
      "suburb": "Wanneroo",
      "lat": -31.720162,
      "lng": 115.783898
    },
    {
      "id": "-32.19762,115.78302",
      "name": "Liberty Naval Base",
      "brand": "Liberty",
      "address": "24 Dooley St",
      "suburb": "Naval Base",
      "lat": -32.197618,
      "lng": 115.783018
    },
    {
      "id": "-32.06307,115.79202",
      "name": "Liberty O'Connor",
      "brand": "Liberty",
      "address": "9 Pritchard St",
      "suburb": "O'Connor",
      "lat": -32.063065,
      "lng": 115.792017
    },
    {
      "id": "-32.29762,115.80712",
      "name": "Vibe Baldivis",
      "brand": "Vibe",
      "address": "120 Kerosene Lane",
      "suburb": "Baldivis",
      "lat": -32.29762,
      "lng": 115.80712
    },
    {
      "id": "-32.10503,115.78242",
      "name": "Vibe Spearwood",
      "brand": "Vibe",
      "address": "333 Rockingham Rd",
      "suburb": "Spearwood",
      "lat": -32.105033,
      "lng": 115.782419
    },
    {
      "id": "-31.99433,115.93068",
      "name": "Vibe Welshpool",
      "brand": "Vibe",
      "address": "124 Welshpool Rd",
      "suburb": "Welshpool",
      "lat": -31.994327,
      "lng": 115.930681
    },
    {
      "id": "-31.88051,115.84034",
      "name": "Vibe Nollamara",
      "brand": "Vibe",
      "address": "66 Sylvia St",
      "suburb": "Nollamara",
      "lat": -31.880514,
      "lng": 115.840339
    },
    {
      "id": "-32.51732,115.74389",
      "name": "Vibe Mandurah",
      "brand": "Vibe",
      "address": "2 Rafferty Rd",
      "suburb": "Mandurah",
      "lat": -32.517315,
      "lng": 115.743891
    },
    {
      "id": "-32.08614,115.77723",
      "name": "Vibe Hamilton Hill",
      "brand": "Vibe",
      "address": "114 Rockingham Rd",
      "suburb": "Hamilton Hill",
      "lat": -32.086143,
      "lng": 115.777233
    },
    {
      "id": "-32.37158,115.76217",
      "name": "Vibe Port Kennedy",
      "brand": "Vibe",
      "address": "35 Blackburn Dr",
      "suburb": "Port Kennedy",
      "lat": -32.371578,
      "lng": 115.762171
    },
    {
      "id": "-31.93597,115.93436",
      "name": "Vibe Ascot",
      "brand": "Vibe",
      "address": "268 Great Eastern Hwy",
      "suburb": "Ascot",
      "lat": -31.935968,
      "lng": 115.934361
    },
    {
      "id": "-31.88783,115.88989",
      "name": "Vibe Morley",
      "brand": "Vibe",
      "address": "430 Morley Dr",
      "suburb": "Morley",
      "lat": -31.887832,
      "lng": 115.889889
    },
    {
      "id": "-32.07510,115.92295",
      "name": "Vibe Canning Vale",
      "brand": "Vibe",
      "address": "6 Birnam Rd",
      "suburb": "Canning Vale",
      "lat": -32.075096,
      "lng": 115.922947
    },
    {
      "id": "-32.09076,115.86885",
      "name": "Vibe Jandakot",
      "brand": "Vibe",
      "address": "630 Karel Ave",
      "suburb": "Jandakot",
      "lat": -32.090758,
      "lng": 115.868846
    },
    {
      "id": "-32.14718,115.93771",
      "name": "Atlas Fuel Forrestdale",
      "brand": "Atlas",
      "address": "12 Antsey Rd",
      "suburb": "Forrestdale",
      "lat": -32.147176,
      "lng": 115.937714
    },
    {
      "id": "-31.79519,115.89956",
      "name": "United Lexia Truck Stop",
      "brand": "United",
      "address": "779 Gnangara Rd",
      "suburb": "Lexia",
      "lat": -31.795189,
      "lng": 115.899559
    },
    {
      "id": "-31.79425,116.19315",
      "name": "Vibe Toodyay Rd",
      "brand": "Vibe",
      "address": "2086 Toodyay Rd",
      "suburb": "Gidgegannup",
      "lat": -31.794245,
      "lng": 116.193148
    },
    {
      "id": "-31.77852,115.96699",
      "name": "United Ellenbrook",
      "brand": "United",
      "address": "3 Locke Lane",
      "suburb": "Ellenbrook",
      "lat": -31.77852,
      "lng": 115.96699
    },
    {
      "id": "-31.85678,115.90810",
      "name": "7-Eleven Malaga",
      "brand": "7-Eleven",
      "address": "650 Marshall Rd",
      "suburb": "Malaga",
      "lat": -31.856778,
      "lng": 115.908098
    },
    {
      "id": "-31.85649,115.83739",
      "name": "7-Eleven Balga",
      "brand": "7-Eleven",
      "address": "102 Princess Rd",
      "suburb": "Balga",
      "lat": -31.856494,
      "lng": 115.83739
    },
    {
      "id": "-31.80493,115.83574",
      "name": "7-Eleven Landsdale",
      "brand": "7-Eleven",
      "address": "8 Mullingar Way",
      "suburb": "Landsdale",
      "lat": -31.804934,
      "lng": 115.835741
    },
    {
      "id": "-32.52026,115.75361",
      "name": "7-Eleven Greenfields",
      "brand": "7-Eleven",
      "address": "1 Eaglemont St",
      "suburb": "Greenfields",
      "lat": -32.520256,
      "lng": 115.753611
    },
    {
      "id": "-31.76608,115.98554",
      "name": "7-Eleven Malvern Springs",
      "brand": "7-Eleven",
      "address": "324 The Broadway",
      "suburb": "Ellenbrook",
      "lat": -31.766075,
      "lng": 115.985544
    },
    {
      "id": "-32.11899,116.01758",
      "name": "7-Eleven Kelmscott Central",
      "brand": "7-Eleven",
      "address": "4 Church St",
      "suburb": "Kelmscott",
      "lat": -32.118987,
      "lng": 116.017576
    },
    {
      "id": "-32.12636,115.83935",
      "name": "7-Eleven Success",
      "brand": "7-Eleven",
      "address": "660 Beeliar Dr",
      "suburb": "Success",
      "lat": -32.126356,
      "lng": 115.839346
    },
    {
      "id": "-32.12560,115.92601",
      "name": "7-Eleven Harrisdale",
      "brand": "7-Eleven",
      "address": "120 Yellowwood Ave",
      "suburb": "Harrisdale",
      "lat": -32.125599,
      "lng": 115.92601
    },
    {
      "id": "-31.94178,115.92508",
      "name": "7-Eleven Ascot",
      "brand": "7-Eleven",
      "address": "194 Great Eastern Hwy",
      "suburb": "Ascot",
      "lat": -31.941776,
      "lng": 115.925077
    },
    {
      "id": "-32.12356,115.95626",
      "name": "7-Eleven Forrestdale",
      "brand": "7-Eleven",
      "address": "2 Haydock St",
      "suburb": "Forrestdale",
      "lat": -32.123564,
      "lng": 115.956257
    },
    {
      "id": "-32.12000,115.84655",
      "name": "7-Eleven Cockburn Central",
      "brand": "7-Eleven",
      "address": "814 North Lake Rd",
      "suburb": "Cockburn Central",
      "lat": -32.120001,
      "lng": 115.846548
    },
    {
      "id": "-31.99715,115.94677",
      "name": "7-Eleven Queens Park",
      "brand": "7-Eleven",
      "address": "235 Welshpool Rd",
      "suburb": "Queens Park",
      "lat": -31.997151,
      "lng": 115.946773
    },
    {
      "id": "-31.90334,115.90305",
      "name": "7-Eleven Morley",
      "brand": "7-Eleven",
      "address": "162 Russell St",
      "suburb": "Morley",
      "lat": -31.903344,
      "lng": 115.903047
    },
    {
      "id": "-32.06954,115.95209",
      "name": "7-Eleven Thornlie",
      "brand": "7-Eleven",
      "address": "125 Murdoch Rd",
      "suburb": "Thornlie",
      "lat": -32.06954,
      "lng": 115.952095
    },
    {
      "id": "-31.97162,115.91834",
      "name": "7-Eleven Carlisle",
      "brand": "7-Eleven",
      "address": "232 Orrong Rd",
      "suburb": "Carlisle",
      "lat": -31.971624,
      "lng": 115.918341
    },
    {
      "id": "-31.86035,115.80964",
      "name": "7-Eleven Balcatta",
      "brand": "7-Eleven",
      "address": "174 Balcatta Rd",
      "suburb": "Balcatta",
      "lat": -31.860353,
      "lng": 115.80964
    },
    {
      "id": "-32.03954,115.82289",
      "name": "7-Eleven Booragoon",
      "brand": "7-Eleven",
      "address": "492 Marmion St",
      "suburb": "Booragoon",
      "lat": -32.039537,
      "lng": 115.822893
    },
    {
      "id": "-32.23585,115.78021",
      "name": "Atlas Fuel Kwinana",
      "brand": "Atlas",
      "address": "1 Mandurah Rd",
      "suburb": "Kwinana Beach",
      "lat": -32.235848,
      "lng": 115.780215
    },
    {
      "id": "-31.87340,115.82884",
      "name": "7-Eleven Stirling",
      "brand": "7-Eleven",
      "address": "377 Wanneroo Rd",
      "suburb": "Balcatta",
      "lat": -31.8734,
      "lng": 115.828839
    },
    {
      "id": "-32.00175,115.91852",
      "name": "7-Eleven Bentley",
      "brand": "7-Eleven",
      "address": "1133-1135 Albany Hwy",
      "suburb": "Bentley",
      "lat": -32.001754,
      "lng": 115.918523
    },
    {
      "id": "-31.92521,115.95199",
      "name": "Atlas Fuel Ascot",
      "brand": "Atlas",
      "address": "472 Great Eastern Hwy",
      "suburb": "Ascot",
      "lat": -31.925213,
      "lng": 115.951987
    },
    {
      "id": "-32.30836,115.82202",
      "name": "7-Eleven Baldivis",
      "brand": "7-Eleven",
      "address": "370 Baldivis Rd",
      "suburb": "Baldivis",
      "lat": -32.308362,
      "lng": 115.822017
    },
    {
      "id": "-32.42078,115.76105",
      "name": "7-Eleven Golden Bay",
      "brand": "7-Eleven",
      "address": "52 Thundelarra Dr",
      "suburb": "Golden Bay",
      "lat": -32.420777,
      "lng": 115.761055
    },
    {
      "id": "-31.55039,115.63859",
      "name": "7-Eleven Yanchep",
      "brand": "7-Eleven",
      "address": "2 Tamala Lane",
      "suburb": "Yanchep",
      "lat": -31.550386,
      "lng": 115.638587
    },
    {
      "id": "-31.62832,115.68969",
      "name": "7-Eleven Alkimos",
      "brand": "7-Eleven",
      "address": "10 Carlsbad Prom",
      "suburb": "Alkimos",
      "lat": -31.628323,
      "lng": 115.689693
    },
    {
      "id": "-31.94561,115.85244",
      "name": "United Northbridge",
      "brand": "United",
      "address": "31 Fitzgerald St",
      "suburb": "Northbridge",
      "lat": -31.945612,
      "lng": 115.852438
    },
    {
      "id": "-32.04236,115.99131",
      "name": "United Maddington Truck Stop",
      "brand": "United",
      "address": "13 Stebbing Rd",
      "suburb": "Maddington",
      "lat": -32.042356,
      "lng": 115.99131
    },
    {
      "id": "-31.75261,115.80343",
      "name": "Atlas Fuel Wanneroo",
      "brand": "Atlas",
      "address": "951 Wanneroo Rd",
      "suburb": "Wanneroo",
      "lat": -31.752615,
      "lng": 115.803432
    },
    {
      "id": "-32.22121,116.00921",
      "name": "Vibe Byford",
      "brand": "Vibe",
      "address": "868 South Western Hwy",
      "suburb": "Byford",
      "lat": -32.221206,
      "lng": 116.009206
    },
    {
      "id": "-31.87547,115.97457",
      "name": "7-Eleven Caversham",
      "brand": "7-Eleven",
      "address": "2131 West Swan Rd",
      "suburb": "Caversham",
      "lat": -31.875469,
      "lng": 115.974566
    },
    {
      "id": "-31.75431,115.80447",
      "name": "7-Eleven Wanneroo South",
      "brand": "7-Eleven",
      "address": "929-931 Wanneroo Rd",
      "suburb": "Wanneroo",
      "lat": -31.754313,
      "lng": 115.804474
    },
    {
      "id": "-31.90633,115.93087",
      "name": "7-Eleven Bassendean",
      "brand": "7-Eleven",
      "address": "302-318 Collier Rd",
      "suburb": "Bassendean",
      "lat": -31.9063297,
      "lng": 115.9308682
    },
    {
      "id": "-32.53585,115.73693",
      "name": "7-Eleven Mandurah",
      "brand": "7-Eleven",
      "address": "296 Pinjarra Rd",
      "suburb": "Mandurah",
      "lat": -32.53585,
      "lng": 115.736934
    },
    {
      "id": "-32.05538,115.98860",
      "name": "7-Eleven Maddington South",
      "brand": "7-Eleven",
      "address": "1969 Albany Hwy",
      "suburb": "Maddington",
      "lat": -32.055377,
      "lng": 115.9886
    },
    {
      "id": "-32.00000,115.98578",
      "name": "7-Eleven Wattle Grove",
      "brand": "7-Eleven",
      "address": "332 Hale Rd",
      "suburb": "Wattle Grove",
      "lat": -32.0,
      "lng": 115.985784
    },
    {
      "id": "-32.53774,115.75740",
      "name": "7-Eleven Greenfields South",
      "brand": "7-Eleven",
      "address": "13 Lakes Rd",
      "suburb": "Greenfields",
      "lat": -32.537744,
      "lng": 115.757395
    },
    {
      "id": "-32.08980,115.99868",
      "name": "7-Eleven Gosnells",
      "brand": "7-Eleven",
      "address": "303 Corfield St",
      "suburb": "Gosnells",
      "lat": -32.089802,
      "lng": 115.998682
    },
    {
      "id": "-32.29169,115.74309",
      "name": "7-Eleven Rockingham Central",
      "brand": "7-Eleven",
      "address": "2 Sepia Ct",
      "suburb": "Rockingham",
      "lat": -32.291686,
      "lng": 115.743091
    },
    {
      "id": "-31.70342,115.80432",
      "name": "7-Eleven Banksia Grove",
      "brand": "7-Eleven",
      "address": "1/300 Joseph Banks Bvd",
      "suburb": "Banksia Grove",
      "lat": -31.703423,
      "lng": 115.804315
    },
    {
      "id": "-31.83263,115.96813",
      "name": "7-Eleven Brabham",
      "brand": "7-Eleven",
      "address": "3 Marvel Ent",
      "suburb": "Brabham",
      "lat": -31.83263,
      "lng": 115.968131
    },
    {
      "id": "-31.98805,116.00844",
      "name": "Atlas Fuel Forrestfield",
      "brand": "Atlas",
      "address": "78C Hale Rd",
      "suburb": "Forrestfield",
      "lat": -31.988049,
      "lng": 116.008437
    },
    {
      "id": "-31.65374,115.71585",
      "name": "7-Eleven Ridgewood",
      "brand": "7-Eleven",
      "address": "35 Kilrush Turn",
      "suburb": "Ridgewood",
      "lat": -31.653737,
      "lng": 115.715851
    },
    {
      "id": "-31.78644,115.96727",
      "name": "7-Eleven Ellenbrook Central",
      "brand": "7-Eleven",
      "address": "Cnr Main St & Pinaster Pde",
      "suburb": "Ellenbrook",
      "lat": -31.786444,
      "lng": 115.967273
    },
    {
      "id": "-32.42028,115.76049",
      "name": "Atlas Fuel Golden Bay",
      "brand": "Atlas",
      "address": "2 Aurea Bvd",
      "suburb": "Golden Bay",
      "lat": -32.42028,
      "lng": 115.760489
    },
    {
      "id": "-31.67154,116.03145",
      "name": "Shell Bullsbrook",
      "brand": "Shell",
      "address": "2539 Great Northern Hwy",
      "suburb": "Bullsbrook",
      "lat": -31.671536,
      "lng": 116.031446
    },
    {
      "id": "-32.01664,115.93820",
      "name": "Liberty Cannington",
      "brand": "Liberty",
      "address": "25 Cecil Ave",
      "suburb": "Cannington",
      "lat": -32.01664,
      "lng": 115.938196
    },
    {
      "id": "-32.16149,116.01760",
      "name": "United Armadale",
      "brand": "United",
      "address": "178 South Western Hwy",
      "suburb": "Armadale",
      "lat": -32.161492,
      "lng": 116.0176
    },
    {
      "id": "-32.21544,116.00803",
      "name": "United Byford",
      "brand": "United",
      "address": "801-803 South Western Hwy",
      "suburb": "Byford",
      "lat": -32.2154436,
      "lng": 116.0080304
    },
    {
      "id": "-31.81889,115.77410",
      "name": "United Hepburn Heights",
      "brand": "United",
      "address": "4 Walter Padbury Bvd",
      "suburb": "Padbury",
      "lat": -31.81889,
      "lng": 115.774096
    },
    {
      "id": "-32.21135,115.85564",
      "name": "United Anketell",
      "brand": "United",
      "address": "5 Albina Ave",
      "suburb": "Anketell",
      "lat": -32.211351,
      "lng": 115.855637
    },
    {
      "id": "-32.22780,115.85588",
      "name": "United Anketell South",
      "brand": "United",
      "address": "805 Thomas Rd",
      "suburb": "Anketell",
      "lat": -32.227802,
      "lng": 115.8558758
    },
    {
      "id": "-31.95231,115.83115",
      "name": "Vibe Subiaco",
      "brand": "Vibe",
      "address": "123 Thomas St",
      "suburb": "Subiaco",
      "lat": -31.952307,
      "lng": 115.83115
    },
    {
      "id": "-31.87849,116.20905",
      "name": "Vibe Mt Helena",
      "brand": "Vibe",
      "address": "9 McVicar Pl",
      "suburb": "Mount Helena",
      "lat": -31.878494,
      "lng": 116.209053
    },
    {
      "id": "-31.90000,115.88926",
      "name": "Vibe Bedford",
      "brand": "Vibe",
      "address": "168 Walter Rd West",
      "suburb": "Bedford",
      "lat": -31.9,
      "lng": 115.889257
    },
    {
      "id": "-31.67194,116.03143",
      "name": "Vibe Bullsbrook",
      "brand": "Vibe",
      "address": "2533 Great Northern Hwy",
      "suburb": "Bullsbrook",
      "lat": -31.671935,
      "lng": 116.031427
    },
    {
      "id": "-31.87200,115.95992",
      "name": "Atlas Fuel Caversham",
      "brand": "Atlas",
      "address": "40 Bennett St",
      "suburb": "Caversham",
      "lat": -31.8719994,
      "lng": 115.9599162
    },
    {
      "id": "-33.65928,115.29810",
      "name": "Vibe Broadwater",
      "brand": "Vibe",
      "address": "375 Bussell Hwy",
      "suburb": "Broadwater",
      "lat": -33.659283,
      "lng": 115.298097
    },
    {
      "id": "-32.22208,116.00592",
      "name": "7-Eleven Byford South",
      "brand": "7-Eleven",
      "address": "25 Abernethy Rd",
      "suburb": "Byford",
      "lat": -32.222078,
      "lng": 116.005916
    },
    {
      "id": "-31.63536,115.70555",
      "name": "7-Eleven Butler",
      "brand": "7-Eleven",
      "address": "270 Butler Bvd",
      "suburb": "Butler",
      "lat": -31.635358,
      "lng": 115.705554
    },
    {
      "id": "-32.27664,115.77748",
      "name": "7-Eleven Rockingham",
      "brand": "7-Eleven",
      "address": "129 Dixon Rd",
      "suburb": "East Rockingham",
      "lat": -32.276643,
      "lng": 115.777477
    },
    {
      "id": "-32.10788,115.93972",
      "name": "7-Eleven Southern River",
      "brand": "7-Eleven",
      "address": "481 Balfour St",
      "suburb": "Southern River",
      "lat": -32.107884,
      "lng": 115.939718
    },
    {
      "id": "-32.10141,115.80166",
      "name": "7-Eleven Bibra Lake",
      "brand": "7-Eleven",
      "address": "35 Port Kembla Dr",
      "suburb": "Bibra Lake",
      "lat": -32.101411,
      "lng": 115.801664
    },
    {
      "id": "-32.12864,115.99977",
      "name": "7-Eleven Kelmscott",
      "brand": "7-Eleven",
      "address": "105 Champion Dr",
      "suburb": "Kelmscott",
      "lat": -32.128644,
      "lng": 115.999775
    },
    {
      "id": "-32.24753,115.77326",
      "name": "Caltex Kwinana Truck Stop",
      "brand": "Caltex",
      "address": "4 Ocean St",
      "suburb": "Kwinana Beach",
      "lat": -32.247525,
      "lng": 115.773262
    },
    {
      "id": "-32.03461,116.00092",
      "name": "Caltex Kelvin Rd",
      "brand": "Caltex",
      "address": "137 Kelvin Rd",
      "suburb": "Maddington",
      "lat": -32.034609,
      "lng": 116.000915
    },
    {
      "id": "-31.90061,116.15198",
      "name": "UGO Mundaring",
      "brand": "UGO",
      "address": "5895 Great Eastern Hwy",
      "suburb": "Mundaring",
      "lat": -31.900609,
      "lng": 116.151983
    },
    {
      "id": "-31.99546,116.01183",
      "name": "FastFuel 24/7",
      "brand": "FastFuel 24/7",
      "address": "54 Cumberland Rd",
      "suburb": "Forrestfield",
      "lat": -31.995465,
      "lng": 116.01183
    },
    {
      "id": "-33.65972,115.27928",
      "name": "Burk Broadwater",
      "brand": "Burk",
      "address": "545 Bussell Hwy",
      "suburb": "Broadwater",
      "lat": -33.659722,
      "lng": 115.279282
    },
    {
      "id": "-31.90321,116.20503",
      "name": "Atlas Fuel Sawyers Valley",
      "brand": "Atlas",
      "address": "10895 Great Eastern Hwy",
      "suburb": "Sawyers Valley",
      "lat": -31.903211,
      "lng": 116.205032
    },
    {
      "id": "-32.14614,115.77909",
      "name": "Vibe Henderson",
      "brand": "Vibe",
      "address": "Lot 104 Russel Rd",
      "suburb": "Henderson",
      "lat": -32.146141,
      "lng": 115.779092
    },
    {
      "id": "-32.14749,115.98440",
      "name": "7-Eleven Haynes",
      "brand": "7-Eleven",
      "address": "1256 Armadale Rd",
      "suburb": "Armadale",
      "lat": -32.147485,
      "lng": 115.984399
    },
    {
      "id": "-31.87367,116.01159",
      "name": "7-Eleven Middle Swan",
      "brand": "7-Eleven",
      "address": "40-42 Great Northern Hwy",
      "suburb": "Middle Swan",
      "lat": -31.873671,
      "lng": 116.011586
    },
    {
      "id": "-31.75393,115.76524",
      "name": "7-Eleven Joondalup",
      "brand": "7-Eleven",
      "address": "8 Buick Way",
      "suburb": "Joondalup",
      "lat": -31.753934,
      "lng": 115.765241
    },
    {
      "id": "-31.89765,116.01557",
      "name": "7-Eleven Midland",
      "brand": "7-Eleven",
      "address": "8 Clayton St",
      "suburb": "Midland",
      "lat": -31.89765,
      "lng": 116.01557
    },
    {
      "id": "-32.30966,115.79670",
      "name": "Petro Fuels Baldivis",
      "brand": "Petro Fuels",
      "address": "909 Mandurah Rd",
      "suburb": "Baldivis",
      "lat": -32.309663,
      "lng": 115.796699
    },
    {
      "id": "-32.11888,115.79473",
      "name": "OTR Yangebup",
      "brand": "Caltex",
      "address": "71 Shallcross St",
      "suburb": "Yangebup",
      "lat": -32.1188832,
      "lng": 115.79473
    },
    {
      "id": "-31.90120,115.96909",
      "name": "S24 Guildford",
      "brand": "Caltex",
      "address": "22 Johnson St",
      "suburb": "Guildford",
      "lat": -31.901203,
      "lng": 115.969087
    },
    {
      "id": "-31.90309,116.20713",
      "name": "S24 Sawyers Valley",
      "brand": "Caltex",
      "address": "96 Great Eastern Hwy",
      "suburb": "Sawyers Valley",
      "lat": -31.903091,
      "lng": 116.207132
    },
    {
      "id": "-31.98553,115.89619",
      "name": "Shell Reddy Express Victoria Park",
      "brand": "Reddy Express",
      "address": "66 Kent St",
      "suburb": "East Victoria Park",
      "lat": -31.985535,
      "lng": 115.896186
    },
    {
      "id": "-32.04949,115.98110",
      "name": "OTR Maddington",
      "brand": "Shell",
      "address": "1-3 Sampson St",
      "suburb": "Maddington",
      "lat": -32.049491,
      "lng": 115.981099
    },
    {
      "id": "-31.83558,115.78283",
      "name": "Shell Reddy Express Duncraig",
      "brand": "Reddy Express",
      "address": "193 Warwick Rd",
      "suburb": "Duncraig",
      "lat": -31.835583,
      "lng": 115.782828
    },
    {
      "id": "-32.05535,115.97991",
      "name": "Shell Reddy Express Maddington",
      "brand": "Reddy Express",
      "address": "117 Burslem Dr",
      "suburb": "Maddington",
      "lat": -32.055352,
      "lng": 115.979908
    },
    {
      "id": "-31.98870,116.01075",
      "name": "Shell Reddy Express Forrestfield",
      "brand": "Reddy Express",
      "address": "2 Strelitzia Ave",
      "suburb": "Forrestfield",
      "lat": -31.988699,
      "lng": 116.010746
    },
    {
      "id": "-31.94095,115.86390",
      "name": "Shell Reddy Express Perth",
      "brand": "Reddy Express",
      "address": "480 William St",
      "suburb": "Perth",
      "lat": -31.940953,
      "lng": 115.863904
    },
    {
      "id": "-32.04145,115.84887",
      "name": "Shell Reddy Express Brentwood",
      "brand": "Reddy Express",
      "address": "71 Cranford Ave",
      "suburb": "Brentwood",
      "lat": -32.041448,
      "lng": 115.848868
    },
    {
      "id": "-32.09248,115.92393",
      "name": "Metro Canning Vale",
      "brand": "Metro Petroleum",
      "address": "Lot 322 Ranford Rd",
      "suburb": "Canning Vale",
      "lat": -32.092476,
      "lng": 115.923934
    },
    {
      "id": "-31.77500,115.96000",
      "name": "Shell Reddy Express Ellenbrook",
      "brand": "Reddy Express",
      "address": "3 Goodwood Cres",
      "suburb": "Ellenbrook",
      "lat": -31.775,
      "lng": 115.96
    },
    {
      "id": "-31.76955,115.77880",
      "name": "Shell Reddy Express Edgewater",
      "brand": "Reddy Express",
      "address": "57 Joondalup Dr",
      "suburb": "Edgewater",
      "lat": -31.769548,
      "lng": 115.778804
    },
    {
      "id": "-31.90673,115.92665",
      "name": "Shell Reddy Express Bayswater",
      "brand": "Reddy Express",
      "address": "34 Jackson St",
      "suburb": "Bayswater",
      "lat": -31.906734,
      "lng": 115.92665
    },
    {
      "id": "-31.90580,115.88270",
      "name": "Shell Reddy Express Dianella",
      "brand": "Reddy Express",
      "address": "67 Walter Rd West",
      "suburb": "Dianella",
      "lat": -31.905801,
      "lng": 115.8827
    },
    {
      "id": "-31.63826,115.69551",
      "name": "Shell Reddy Express Brighton",
      "brand": "Reddy Express",
      "address": "61 Butler Bvd",
      "suburb": "Butler",
      "lat": -31.638264,
      "lng": 115.69551
    },
    {
      "id": "-32.01209,115.86443",
      "name": "OTR Como",
      "brand": "Shell",
      "address": "73 Manning Rd",
      "suburb": "Como",
      "lat": -32.012091,
      "lng": 115.864427
    },
    {
      "id": "-31.92382,115.85928",
      "name": "Shell Reddy Express Mount Lawley",
      "brand": "Reddy Express",
      "address": "253 Walcott St",
      "suburb": "North Perth",
      "lat": -31.923821,
      "lng": 115.859281
    },
    {
      "id": "-32.16886,116.01486",
      "name": "Shell Reddy Express Armadale",
      "brand": "Reddy Express",
      "address": "269 South Western Hwy",
      "suburb": "Armadale",
      "lat": -32.168864,
      "lng": 116.014864
    },
    {
      "id": "-31.90753,115.81909",
      "name": "Shell Reddy Express Osborne Park",
      "brand": "Reddy Express",
      "address": "11 Roberts St West",
      "suburb": "Osborne Park",
      "lat": -31.907535,
      "lng": 115.819092
    },
    {
      "id": "-32.10352,115.93472",
      "name": "Shell Reddy Express Southern River",
      "brand": "Reddy Express",
      "address": "216 Lakey St",
      "suburb": "Southern River",
      "lat": -32.103521,
      "lng": 115.934721
    },
    {
      "id": "-31.70653,115.80268",
      "name": "Shell Reddy Express Banksia Grove",
      "brand": "Reddy Express",
      "address": "1001 Joondalup Dr",
      "suburb": "Banksia Grove",
      "lat": -31.70653,
      "lng": 115.802679
    },
    {
      "id": "-32.13040,116.00097",
      "name": "Shell Reddy Express Westfield",
      "brand": "Reddy Express",
      "address": "88 Champion Dr",
      "suburb": "Seville Grove",
      "lat": -32.130396,
      "lng": 116.000966
    },
    {
      "id": "-32.03965,115.81528",
      "name": "Shell Reddy Express Myaree",
      "brand": "Reddy Express",
      "address": "69 North Lake Rd",
      "suburb": "Myaree",
      "lat": -32.039649,
      "lng": 115.815283
    },
    {
      "id": "-32.23233,115.84821",
      "name": "Shell Reddy Express Casuarina",
      "brand": "Reddy Express",
      "address": "1 Johnson Rd",
      "suburb": "Bertram",
      "lat": -32.232326,
      "lng": 115.848215
    },
    {
      "id": "-31.93047,115.94473",
      "name": "S24 Redcliffe",
      "brand": "Shell",
      "address": "419 Great Eastern Hwy",
      "suburb": "Redcliffe",
      "lat": -31.930469,
      "lng": 115.944728
    },
    {
      "id": "-32.00063,115.91870",
      "name": "Shell Reddy Express Bentley",
      "brand": "Reddy Express",
      "address": "1128 Albany Hwy",
      "suburb": "Bentley",
      "lat": -32.000633,
      "lng": 115.918698
    },
    {
      "id": "-31.99056,116.00006",
      "name": "S24 Forrestfield",
      "brand": "Shell",
      "address": "155 Hale Rd",
      "suburb": "Forrestfield",
      "lat": -31.990555,
      "lng": 116.000064
    },
    {
      "id": "-32.06109,115.93926",
      "name": "Atlas Fuel Thornlie",
      "brand": "Atlas",
      "address": "223 Yale Rd",
      "suburb": "Thornlie",
      "lat": -32.061092,
      "lng": 115.939257
    },
    {
      "id": "-31.99371,115.91914",
      "name": "Atlas Fuel Welshpool",
      "brand": "Atlas",
      "address": "36 Welshpool Rd",
      "suburb": "Welshpool",
      "lat": -31.993707,
      "lng": 115.919139
    },
    {
      "id": "-31.78003,115.80818",
      "name": "Shell Reddy Express Wanneroo Pearsall",
      "brand": "Reddy Express",
      "address": "621 Wanneroo Rd",
      "suburb": "Wanneroo",
      "lat": -31.780031,
      "lng": 115.808184
    },
    {
      "id": "-31.88555,116.03275",
      "name": "Metro Midvale",
      "brand": "Metro Petroleum",
      "address": "83 Farrall Rd",
      "suburb": "Midvale",
      "lat": -31.885552,
      "lng": 116.032753
    },
    {
      "id": "-31.87587,115.92531",
      "name": "Solo Morley",
      "brand": "Solo",
      "address": "298 Benara Rd",
      "suburb": "Morley",
      "lat": -31.875866,
      "lng": 115.925309
    },
    {
      "id": "-34.98178,117.92210",
      "name": "Liberty Oyster Harbour",
      "brand": "Liberty",
      "address": "4 Bayonet Head Rd",
      "suburb": "Bayonet Head",
      "lat": -34.981779,
      "lng": 117.922103
    },
    {
      "id": "-34.98550,117.85172",
      "name": "Liberty McKail",
      "brand": "Liberty",
      "address": "557 Albany Hwy",
      "suburb": "Mckail",
      "lat": -34.985495,
      "lng": 117.851724
    },
    {
      "id": "-32.24878,115.80802",
      "name": "Petro Fuels Calista",
      "brand": "Liberty",
      "address": "103 Calista Ave",
      "suburb": "Calista",
      "lat": -32.248776,
      "lng": 115.808019
    },
    {
      "id": "-31.86771,115.82981",
      "name": "Petro Fuels Westminster",
      "brand": "Petro Fuels",
      "address": "436 Wanneroo Rd",
      "suburb": "Westminster",
      "lat": -31.867713,
      "lng": 115.829807
    },
    {
      "id": "-35.00181,117.86330",
      "name": "United Albany Orana",
      "brand": "United",
      "address": "367 Albany Hwy",
      "suburb": "Orana",
      "lat": -35.001813,
      "lng": 117.863298
    },
    {
      "id": "-32.11689,115.79545",
      "name": "OMG Metro Yangebup",
      "brand": "OMG Metro",
      "address": "109 Barrington St",
      "suburb": "Yangebup",
      "lat": -32.116891,
      "lng": 115.795446
    },
    {
      "id": "-31.90643,115.88192",
      "name": "OMG Metro Dianella",
      "brand": "OMG Metro",
      "address": "63 Walter Rd West",
      "suburb": "Dianella",
      "lat": -31.906435,
      "lng": 115.881917
    },
    {
      "id": "-32.13683,115.98031",
      "name": "Petro Fuels Seville Grove",
      "brand": "Petro Fuels",
      "address": "537 Lake Rd",
      "suburb": "Seville Grove",
      "lat": -32.136834,
      "lng": 115.980305
    },
    {
      "id": "-31.88569,116.04219",
      "name": "Petro Fuels Swan View",
      "brand": "Petro Fuels",
      "address": "309 Morrison Rd",
      "suburb": "Swan View",
      "lat": -31.885693,
      "lng": 116.042187
    },
    {
      "id": "-31.90468,115.91633",
      "name": "Vibe Bayswater",
      "brand": "Vibe",
      "address": "120 Beechboro Rd South",
      "suburb": "Bayswater",
      "lat": -31.9046833,
      "lng": 115.9163268
    },
    {
      "id": "-31.91548,115.93177",
      "name": "Petro Fuels Bassendean",
      "brand": "Petro Fuels",
      "address": "190 Railway Pde",
      "suburb": "Bassendean",
      "lat": -31.915476,
      "lng": 115.931768
    },
    {
      "id": "-33.65608,115.34122",
      "name": "Liberty Busselton West",
      "brand": "Liberty",
      "address": "100 West St",
      "suburb": "West Busselton",
      "lat": -33.656076,
      "lng": 115.341215
    },
    {
      "id": "-32.30875,116.00673",
      "name": "Atlas Fuel Jarrahdale",
      "brand": "Atlas",
      "address": "2 Jarrahdale Rd",
      "suburb": "Jarrahdale",
      "lat": -32.308753,
      "lng": 116.006734
    },
    {
      "id": "-31.69280,115.71884",
      "name": "7-Eleven Clarkson",
      "brand": "7-Eleven",
      "address": "19 Neerabup Dr",
      "suburb": "Clarkson",
      "lat": -31.692797,
      "lng": 115.718843
    },
    {
      "id": "-31.74899,115.80195",
      "name": "Metro Wanneroo",
      "brand": "Metro Petroleum",
      "address": "994 Wanneroo Rd",
      "suburb": "Wanneroo",
      "lat": -31.748986,
      "lng": 115.801954
    },
    {
      "id": "-31.76528,115.74101",
      "name": "OMG Metro Ocean Reef",
      "brand": "OMG Metro",
      "address": "82 Marina Bvd",
      "suburb": "Ocean Reef",
      "lat": -31.765279,
      "lng": 115.741009
    },
    {
      "id": "-33.35187,115.64194",
      "name": "Vibe Bunbury South",
      "brand": "Vibe",
      "address": "302 Blair St",
      "suburb": "South Bunbury",
      "lat": -33.351866,
      "lng": 115.641941
    },
    {
      "id": "-31.92231,115.85026",
      "name": "Vibe Charles St",
      "brand": "Vibe",
      "address": "427 Charles St",
      "suburb": "North Perth",
      "lat": -31.922312,
      "lng": 115.850264
    },
    {
      "id": "-32.10509,116.12142",
      "name": "Petro Fuels Karragullen",
      "brand": "Petro Fuels",
      "address": "1287 Brookton Hwy",
      "suburb": "Karragullen",
      "lat": -32.105085,
      "lng": 116.121421
    },
    {
      "id": "-31.89727,115.84145",
      "name": "Better Choice Tuart Hill",
      "brand": "Better Choice",
      "address": "150 Wanneroo Rd",
      "suburb": "Tuart Hill",
      "lat": -31.897268,
      "lng": 115.841447
    },
    {
      "id": "-31.99423,115.85955",
      "name": "Better Choice Como",
      "brand": "Better Choice",
      "address": "25 Preston St",
      "suburb": "Como",
      "lat": -31.994235,
      "lng": 115.859554
    },
    {
      "id": "-31.77204,115.78918",
      "name": "Better Choice Edgewater",
      "brand": "Better Choice",
      "address": "21 Edgewater Dr",
      "suburb": "Edgewater",
      "lat": -31.772036,
      "lng": 115.789182
    },
    {
      "id": "-31.85514,115.87823",
      "name": "Better Choice Malaga",
      "brand": "Better Choice",
      "address": "3 Carson Rd",
      "suburb": "Malaga",
      "lat": -31.855136,
      "lng": 115.878229
    },
    {
      "id": "-31.89306,116.01942",
      "name": "Better Choice Bellevue",
      "brand": "Better Choice",
      "address": "177-179 Great Eastern Hwy",
      "suburb": "Bellevue",
      "lat": -31.893058,
      "lng": 116.019419
    },
    {
      "id": "-33.39621,115.63696",
      "name": "Liberty Dalyellup",
      "brand": "Liberty",
      "address": "9 Norton Prom",
      "suburb": "Dalyellup",
      "lat": -33.396215,
      "lng": 115.636958
    },
    {
      "id": "-29.25304,114.95637",
      "name": "Liberty Dongara",
      "brand": "Liberty",
      "address": "30215 Brand Hwy",
      "suburb": "Dongara",
      "lat": -29.253038,
      "lng": 114.956368
    },
    {
      "id": "-30.73571,115.53909",
      "name": "Liberty Cataby",
      "brand": "Liberty",
      "address": "10805 Brand Hwy",
      "suburb": "Cataby",
      "lat": -30.735706,
      "lng": 115.539091
    },
    {
      "id": "-32.84542,115.92233",
      "name": "Vibe Waroona",
      "brand": "Vibe",
      "address": "89 South Western Hwy",
      "suburb": "Waroona",
      "lat": -32.845424,
      "lng": 115.922328
    },
    {
      "id": "-33.33604,115.64696",
      "name": "Vibe Bunbury Central",
      "brand": "Vibe",
      "address": "42 Strickland St",
      "suburb": "Bunbury",
      "lat": -33.336043,
      "lng": 115.646957
    },
    {
      "id": "-31.76585,116.03176",
      "name": "Vibe Upper Swan",
      "brand": "Vibe",
      "address": "1447 Great Northern Hwy",
      "suburb": "Upper Swan",
      "lat": -31.765846,
      "lng": 116.031763
    },
    {
      "id": "-33.08247,115.90548",
      "name": "Vibe Harvey",
      "brand": "Vibe",
      "address": "46 South Western Hwy",
      "suburb": "Harvey",
      "lat": -33.082471,
      "lng": 115.905481
    },
    {
      "id": "-32.72704,115.88186",
      "name": "Vibe Placid Ark Roadhouse",
      "brand": "Vibe",
      "address": "6947 South Western Hwy",
      "suburb": "Coolup",
      "lat": -32.727044,
      "lng": 115.881859
    },
    {
      "id": "-31.49097,115.59752",
      "name": "7-Eleven Two Rocks",
      "brand": "7-Eleven",
      "address": "2 Dunraven Rd",
      "suburb": "Two Rocks",
      "lat": -31.49097,
      "lng": 115.597517
    },
    {
      "id": "-32.05351,116.00081",
      "name": "OMG Metro Maddington",
      "brand": "OMG Metro",
      "address": "134 Westfield St",
      "suburb": "Maddington",
      "lat": -32.053507,
      "lng": 116.000806
    },
    {
      "id": "-33.65554,115.22015",
      "name": "Vibe Siesta Park",
      "brand": "Vibe",
      "address": "367 Caves Rd",
      "suburb": "Kealy",
      "lat": -33.655538,
      "lng": 115.220151
    },
    {
      "id": "-28.77812,114.62659",
      "name": "Ampol Foodary Wonthella",
      "brand": "Ampol",
      "address": "40 North West Coastal Hwy",
      "suburb": "Wonthella",
      "lat": -28.778125,
      "lng": 114.626588
    },
    {
      "id": "-33.65409,115.34184",
      "name": "7-Eleven Busselton",
      "brand": "7-Eleven",
      "address": "81-93 West St",
      "suburb": "Busselton",
      "lat": -33.654091,
      "lng": 115.341836
    },
    {
      "id": "-33.33672,115.64141",
      "name": "Ampol Foodary Bunbury",
      "brand": "Ampol",
      "address": "1 Forrest Ave",
      "suburb": "Bunbury",
      "lat": -33.336723,
      "lng": 115.641414
    },
    {
      "id": "-32.11589,116.08327",
      "name": "OTR Roleystone",
      "brand": "Caltex",
      "address": "770 Brookton Hwy",
      "suburb": "Roleystone",
      "lat": -32.115893,
      "lng": 116.083267
    },
    {
      "id": "-32.06733,115.81518",
      "name": "7-Eleven Kardinya",
      "brand": "7-Eleven",
      "address": "1 South St",
      "suburb": "Kardinya",
      "lat": -32.067327,
      "lng": 115.815185
    },
    {
      "id": "-31.65513,116.67158",
      "name": "EG Ampol Northam",
      "brand": "EG Ampol",
      "address": "86 Wellington St",
      "suburb": "Northam",
      "lat": -31.655128,
      "lng": 116.671585
    },
    {
      "id": "-33.02903,116.87955",
      "name": "Burk Williams",
      "brand": "Burk",
      "address": "24 Albany Hwy",
      "suburb": "Williams",
      "lat": -33.029031,
      "lng": 116.879548
    },
    {
      "id": "-32.00411,115.92049",
      "name": "Caltex Bentley",
      "brand": "Caltex",
      "address": "1/1163 Albany Hwy",
      "suburb": "Bentley",
      "lat": -32.004113,
      "lng": 115.920489
    },
    {
      "id": "-31.99915,115.86236",
      "name": "Caltex Como",
      "brand": "Caltex",
      "address": "393 Canning Hwy",
      "suburb": "Como",
      "lat": -31.999152,
      "lng": 115.862362
    },
    {
      "id": "-31.91956,115.92907",
      "name": "Caltex Bayswater",
      "brand": "Caltex",
      "address": "502 Guildford Rd",
      "suburb": "Bayswater",
      "lat": -31.919556,
      "lng": 115.929069
    },
    {
      "id": "-31.77089,116.02868",
      "name": "Caltex Upper Swan",
      "brand": "Caltex",
      "address": "1383 Great Northern Hwy",
      "suburb": "Upper Swan",
      "lat": -31.770891,
      "lng": 116.028679
    },
    {
      "id": "-31.90528,115.93237",
      "name": "Metro Bassendean",
      "brand": "Metro Petroleum",
      "address": "335 Collier Rd",
      "suburb": "Bassendean",
      "lat": -31.905283,
      "lng": 115.932367
    },
    {
      "id": "-33.08072,115.89521",
      "name": "S24 Harvey",
      "brand": "Caltex",
      "address": "77 Uduc Rd",
      "suburb": "Harvey",
      "lat": -33.080723,
      "lng": 115.895212
    },
    {
      "id": "-31.86254,115.81915",
      "name": "S24 Balcatta",
      "brand": "Caltex",
      "address": "229 Balcatta Rd",
      "suburb": "Balcatta",
      "lat": -31.862537,
      "lng": 115.819152
    },
    {
      "id": "-31.54778,115.64135",
      "name": "S24 Yanchep",
      "brand": "Caltex",
      "address": "1 Ikara Lane",
      "suburb": "Yanchep",
      "lat": -31.547779,
      "lng": 115.641352
    },
    {
      "id": "-31.89284,115.75729",
      "name": "Shell Reddy Express Scarborough",
      "brand": "Reddy Express",
      "address": "205 West Coast Hwy",
      "suburb": "Scarborough",
      "lat": -31.892841,
      "lng": 115.757287
    },
    {
      "id": "-31.81975,115.80578",
      "name": "Shell Reddy Express Kingsley",
      "brand": "Reddy Express",
      "address": "47 Renegade Way",
      "suburb": "Kingsley",
      "lat": -31.81975,
      "lng": 115.805778
    },
    {
      "id": "-31.77460,116.02585",
      "name": "Shell Reddy Express Upper Swan Roadhouse",
      "brand": "Reddy Express",
      "address": "1333 Great Northern Hwy",
      "suburb": "Upper Swan",
      "lat": -31.774597,
      "lng": 116.025849
    },
    {
      "id": "-31.94727,115.81194",
      "name": "Shell Reddy Express Jolimont",
      "brand": "Reddy Express",
      "address": "6 Jersey St",
      "suburb": "Jolimont",
      "lat": -31.947273,
      "lng": 115.811941
    },
    {
      "id": "-31.98220,115.78389",
      "name": "Shell Reddy Express Claremont",
      "brand": "Reddy Express",
      "address": "269 Stirling Hwy",
      "suburb": "Claremont",
      "lat": -31.982195,
      "lng": 115.78389
    },
    {
      "id": "-31.94549,115.83972",
      "name": "Shell Reddy Express West Perth",
      "brand": "Reddy Express",
      "address": "30 Thomas St",
      "suburb": "West Perth",
      "lat": -31.945494,
      "lng": 115.839719
    },
    {
      "id": "-32.04732,115.77990",
      "name": "Shell Reddy Express Palmyra",
      "brand": "Reddy Express",
      "address": "80 Carrington St",
      "suburb": "Palmyra",
      "lat": -32.047319,
      "lng": 115.779904
    },
    {
      "id": "-32.03188,115.93884",
      "name": "Shell Reddy Express Langford",
      "brand": "Reddy Express",
      "address": "70 Nicholson Rd",
      "suburb": "Langford",
      "lat": -32.031879,
      "lng": 115.938841
    },
    {
      "id": "-31.98026,115.95851",
      "name": "Shell Reddy Express Kewdale",
      "brand": "Reddy Express",
      "address": "518 Abernethy Rd",
      "suburb": "Kewdale",
      "lat": -31.980262,
      "lng": 115.958507
    },
    {
      "id": "-32.46906,115.75968",
      "name": "Shell Reddy Express Lakelands",
      "brand": "Reddy Express",
      "address": "49 Banksiadale Gte",
      "suburb": "Lakelands",
      "lat": -32.46906,
      "lng": 115.759677
    },
    {
      "id": "-32.55107,115.77864",
      "name": "Shell Reddy Express Mandurah",
      "brand": "Reddy Express",
      "address": "Cnr Pinjarra Rd & Watson Dr",
      "suburb": "Barragup",
      "lat": -32.551075,
      "lng": 115.778636
    },
    {
      "id": "-32.55011,115.70273",
      "name": "Shell Reddy Express Halls Head",
      "brand": "Reddy Express",
      "address": "14 Guava Way",
      "suburb": "Halls Head",
      "lat": -32.550115,
      "lng": 115.70273
    },
    {
      "id": "-31.84443,115.81274",
      "name": "Shell Reddy Express Warwick",
      "brand": "Reddy Express",
      "address": "274 Erindale Rd",
      "suburb": "Warwick",
      "lat": -31.844434,
      "lng": 115.812742
    },
    {
      "id": "-31.83460,115.82890",
      "name": "Shell Reddy Express Girrawheen",
      "brand": "Reddy Express",
      "address": "60 Marangaroo Dr",
      "suburb": "Girrawheen",
      "lat": -31.834601,
      "lng": 115.828903
    },
    {
      "id": "-31.86351,115.87928",
      "name": "Shell Reddy Express Malaga",
      "brand": "Reddy Express",
      "address": "492 Alexander Dr",
      "suburb": "Malaga",
      "lat": -31.863512,
      "lng": 115.879279
    },
    {
      "id": "-31.87445,116.01109",
      "name": "Shell Reddy Express Middle Swan",
      "brand": "Reddy Express",
      "address": "Lot 46 Great Northern Hwy",
      "suburb": "Middle Swan",
      "lat": -31.874449,
      "lng": 116.011086
    },
    {
      "id": "-31.94102,115.81186",
      "name": "Shell Reddy Express Wembley",
      "brand": "Reddy Express",
      "address": "337 Cambridge St",
      "suburb": "Wembley",
      "lat": -31.941023,
      "lng": 115.811858
    },
    {
      "id": "-31.96506,115.93316",
      "name": "Shell Reddy Express Cloverdale",
      "brand": "Reddy Express",
      "address": "223 Belmont Ave",
      "suburb": "Cloverdale",
      "lat": -31.965057,
      "lng": 115.933164
    },
    {
      "id": "-32.03911,115.89376",
      "name": "Shell Reddy Express Willetton",
      "brand": "Reddy Express",
      "address": "239-247 High Rd",
      "suburb": "Willetton",
      "lat": -32.039109,
      "lng": 115.893756
    },
    {
      "id": "-32.06323,115.75666",
      "name": "Shell Reddy Express Fremantle",
      "brand": "Reddy Express",
      "address": "101 Hampton Rd",
      "suburb": "Fremantle",
      "lat": -32.063235,
      "lng": 115.756663
    },
    {
      "id": "-32.20674,115.78471",
      "name": "Caltex Naval Base",
      "brand": "Caltex",
      "address": "Cnr Rockingham Rd & Lee Rd",
      "suburb": "Naval Base",
      "lat": -32.206745,
      "lng": 115.784712
    },
    {
      "id": "-32.03413,115.79278",
      "name": "Shell Reddy Express Bicton",
      "brand": "Reddy Express",
      "address": "394 Canning Hwy",
      "suburb": "Bicton",
      "lat": -32.03413,
      "lng": 115.792776
    },
    {
      "id": "-31.65780,116.66955",
      "name": "Shell Reddy Express Northam",
      "brand": "Reddy Express",
      "address": "10 Beamish Ave",
      "suburb": "Northam",
      "lat": -31.657795,
      "lng": 116.669547
    },
    {
      "id": "-31.79196,115.85248",
      "name": "Shell Reddy Express Wangara",
      "brand": "Reddy Express",
      "address": "1 Niche Pde",
      "suburb": "Wangara",
      "lat": -31.791963,
      "lng": 115.852478
    },
    {
      "id": "-31.76744,115.74942",
      "name": "Shell Reddy Express Ocean Reef",
      "brand": "Reddy Express",
      "address": "6 Marina Bvd",
      "suburb": "Ocean Reef",
      "lat": -31.76744,
      "lng": 115.749421
    },
    {
      "id": "-32.01251,115.85008",
      "name": "Shell Reddy Express Mount Pleasant",
      "brand": "Reddy Express",
      "address": "1 The Esplanade",
      "suburb": "Mount Pleasant",
      "lat": -32.012511,
      "lng": 115.850077
    },
    {
      "id": "-31.94416,115.86904",
      "name": "OTR Perth Pier Street",
      "brand": "Shell",
      "address": "17 Brisbane St",
      "suburb": "Perth",
      "lat": -31.944162,
      "lng": 115.86904
    },
    {
      "id": "-32.11695,115.80747",
      "name": "Shell Reddy Express Bibra Lake",
      "brand": "Reddy Express",
      "address": "1 Timberyard Way",
      "suburb": "Bibra Lake",
      "lat": -32.116954,
      "lng": 115.807471
    },
    {
      "id": "-32.07035,115.89560",
      "name": "Shell Reddy Express Canning Vale",
      "brand": "Reddy Express",
      "address": "280 Bannister Rd",
      "suburb": "Canning Vale",
      "lat": -32.070349,
      "lng": 115.895596
    },
    {
      "id": "-31.69189,115.71612",
      "name": "Shell Reddy Express Clarkson",
      "brand": "Reddy Express",
      "address": "36 Ocean Keys Bvd",
      "suburb": "Clarkson",
      "lat": -31.691894,
      "lng": 115.716118
    },
    {
      "id": "-32.14749,115.98530",
      "name": "Shell Reddy Express Brookdale",
      "brand": "Reddy Express",
      "address": "1256 Armadale Rd",
      "suburb": "Armadale",
      "lat": -32.147485,
      "lng": 115.985303
    },
    {
      "id": "-32.05705,115.86584",
      "name": "S24 Bull Creek",
      "brand": "Shell",
      "address": "83 Wheatley Dr",
      "suburb": "Bull Creek",
      "lat": -32.057051,
      "lng": 115.865845
    },
    {
      "id": "-32.01193,115.88415",
      "name": "Shell Reddy Express Karawara",
      "brand": "Reddy Express",
      "address": "222 Manning Rd",
      "suburb": "Karawara",
      "lat": -32.011927,
      "lng": 115.884145
    },
    {
      "id": "-32.00518,115.75930",
      "name": "Shell Reddy Express Mosman Park",
      "brand": "Reddy Express",
      "address": "582 Stirling Hwy",
      "suburb": "Mosman Park",
      "lat": -32.005184,
      "lng": 115.759304
    },
    {
      "id": "-32.07901,115.85841",
      "name": "Shell Reddy Express Leeming",
      "brand": "Reddy Express",
      "address": "51 Farrington St",
      "suburb": "Leeming",
      "lat": -32.079015,
      "lng": 115.858415
    },
    {
      "id": "-31.97477,115.88164",
      "name": "Shell Reddy Express South Perth",
      "brand": "Reddy Express",
      "address": "3 Canning Hwy",
      "suburb": "South Perth",
      "lat": -31.974773,
      "lng": 115.881635
    },
    {
      "id": "-33.33000,115.64158",
      "name": "OTR Bunbury",
      "brand": "Shell",
      "address": "92 Blair St",
      "suburb": "Bunbury",
      "lat": -33.33,
      "lng": 115.641575
    },
    {
      "id": "-32.01225,116.03530",
      "name": "S24 Crystal Brook (Lesmurdie)",
      "brand": "Shell",
      "address": "7 Welshpool Rd East",
      "suburb": "Lesmurdie",
      "lat": -32.012254,
      "lng": 116.035305
    },
    {
      "id": "-32.24369,115.77659",
      "name": "Shell Reddy Express Kwinana Beach",
      "brand": "Reddy Express",
      "address": "4 Beach St",
      "suburb": "Kwinana Beach",
      "lat": -32.243693,
      "lng": 115.776587
    },
    {
      "id": "-32.31512,115.75318",
      "name": "Shell Reddy Express Waikiki",
      "brand": "Reddy Express",
      "address": "1-9 Gnangara Dr",
      "suburb": "Waikiki",
      "lat": -32.315121,
      "lng": 115.753183
    },
    {
      "id": "-32.06333,115.85783",
      "name": "Shell Reddy Express Bull Creek",
      "brand": "Reddy Express",
      "address": "44 Benningfield Rd",
      "suburb": "Bull Creek",
      "lat": -32.063327,
      "lng": 115.857827
    },
    {
      "id": "-32.12811,115.79874",
      "name": "Shell Reddy Express Beeliar",
      "brand": "Reddy Express",
      "address": "8 Durnin Ave",
      "suburb": "Beeliar",
      "lat": -32.128112,
      "lng": 115.798736
    },
    {
      "id": "-28.75960,114.62511",
      "name": "Atlas Fuel Geraldton",
      "brand": "Atlas",
      "address": "184 North West Coastal Hwy",
      "suburb": "Wonthella",
      "lat": -28.759596,
      "lng": 114.625109
    },
    {
      "id": "-31.84801,115.96758",
      "name": "7-Eleven Dayton",
      "brand": "7-Eleven",
      "address": "10 Swaisdale Ent",
      "suburb": "Dayton",
      "lat": -31.848009,
      "lng": 115.967584
    },
    {
      "id": "-32.03836,115.89675",
      "name": "Solo Riverton",
      "brand": "Solo",
      "address": "268 High Rd",
      "suburb": "Riverton",
      "lat": -32.038363,
      "lng": 115.896754
    },
    {
      "id": "-33.65736,115.31171",
      "name": "Liberty West Busselton",
      "brand": "Liberty",
      "address": "259 Bussell Hwy",
      "suburb": "West Busselton",
      "lat": -33.657357,
      "lng": 115.31171
    },
    {
      "id": "-33.66285,115.34858",
      "name": "Geographe Petroleum",
      "brand": "Liberty",
      "address": "84 Strelly St",
      "suburb": "Busselton",
      "lat": -33.662853,
      "lng": 115.348585
    },
    {
      "id": "-35.00576,117.86688",
      "name": "United Albany Central",
      "brand": "United",
      "address": "309 Albany Hwy",
      "suburb": "Mount Melville",
      "lat": -35.005762,
      "lng": 117.866879
    },
    {
      "id": "-35.00990,117.87044",
      "name": "Petro Fuels Albany",
      "brand": "Petro Fuels",
      "address": "250 Albany Hwy",
      "suburb": "Centennial Park",
      "lat": -35.009895,
      "lng": 117.870443
    },
    {
      "id": "-31.92951,115.94595",
      "name": "NightOwl Shell Redcliffe",
      "brand": "Shell",
      "address": "443 Great Eastern Hwy",
      "suburb": "Redcliffe",
      "lat": -31.929508,
      "lng": 115.945947
    },
    {
      "id": "-32.04540,115.98873",
      "name": "NightOwl Shell Maddington",
      "brand": "Shell",
      "address": "1 Davison St",
      "suburb": "Maddington",
      "lat": -32.045398,
      "lng": 115.988733
    },
    {
      "id": "-32.60830,115.84497",
      "name": "NightOwl Shell Ravenswood",
      "brand": "Shell",
      "address": "6 Beacham Rd",
      "suburb": "Ravenswood",
      "lat": -32.608301,
      "lng": 115.844974
    },
    {
      "id": "-31.89558,116.03281",
      "name": "NightOwl Shell Bellevue",
      "brand": "Shell",
      "address": "49 Great Eastern Hwy",
      "suburb": "Bellevue",
      "lat": -31.895576,
      "lng": 116.032806
    },
    {
      "id": "-33.35143,115.69075",
      "name": "Dunning's Picton",
      "brand": "Shell",
      "address": "254 South Western Hwy",
      "suburb": "Picton",
      "lat": -33.351434,
      "lng": 115.69075
    },
    {
      "id": "-33.34565,115.66023",
      "name": "Vibe Bunbury East",
      "brand": "Vibe",
      "address": "13 Picton Rd",
      "suburb": "East Bunbury",
      "lat": -33.345646,
      "lng": 115.660229
    },
    {
      "id": "-33.33604,115.65447",
      "name": "Vibe Bunbury North",
      "brand": "Vibe",
      "address": "81 King Rd",
      "suburb": "East Bunbury",
      "lat": -33.336038,
      "lng": 115.654472
    },
    {
      "id": "-32.14854,116.02035",
      "name": "NightOwl BP Armadale",
      "brand": "BP",
      "address": "3249 Albany Hwy",
      "suburb": "Armadale",
      "lat": -32.148535,
      "lng": 116.020351
    },
    {
      "id": "-35.02182,117.88309",
      "name": "Metro Albany",
      "brand": "Metro Petroleum",
      "address": "269 York St",
      "suburb": "Albany",
      "lat": -35.021822,
      "lng": 117.883089
    },
    {
      "id": "-35.00903,117.89966",
      "name": "BP Spencer Park Service Station",
      "brand": "BP",
      "address": "30 Angove Rd",
      "suburb": "Spencer Park",
      "lat": -35.009033,
      "lng": 117.899664
    },
    {
      "id": "-31.67243,115.74314",
      "name": "Astron Neerabup",
      "brand": "Astron",
      "address": "2038 Wanneroo Rd",
      "suburb": "Neerabup",
      "lat": -31.672434,
      "lng": 115.743141
    },
    {
      "id": "-35.01694,117.89112",
      "name": "AMPM Beachway",
      "brand": "FuelTech",
      "address": "260 Middleton Rd",
      "suburb": "Mira Mar",
      "lat": -35.016939,
      "lng": 117.891121
    },
    {
      "id": "-35.01239,117.87137",
      "name": "AMPM Highway",
      "brand": "FuelTech",
      "address": "225-227 Albany Hwy",
      "suburb": "Mount Melville",
      "lat": -35.012389,
      "lng": 117.871372
    },
    {
      "id": "-35.02049,117.88186",
      "name": "BP Allway",
      "brand": "BP",
      "address": "35 Albany Hwy",
      "suburb": "Albany",
      "lat": -35.020486,
      "lng": 117.881858
    },
    {
      "id": "-28.75899,114.62509",
      "name": "BP Wonthella Service Station",
      "brand": "BP",
      "address": "190 North West Coastal Hwy",
      "suburb": "Webberton",
      "lat": -28.758995,
      "lng": 114.625092
    },
    {
      "id": "-32.71400,116.06255",
      "name": "Dwellingup BP",
      "brand": "BP",
      "address": "48 McLarty St",
      "suburb": "Dwellingup",
      "lat": -32.714003,
      "lng": 116.062545
    },
    {
      "id": "-32.20748,115.97765",
      "name": "Caltex Byford",
      "brand": "Caltex",
      "address": "8 Kardan Bvd",
      "suburb": "Byford",
      "lat": -32.207484,
      "lng": 115.977648
    },
    {
      "id": "-32.07919,115.84290",
      "name": "Caltex Murdoch",
      "brand": "Caltex",
      "address": "170 Murdoch Dr",
      "suburb": "Murdoch",
      "lat": -32.079195,
      "lng": 115.842898
    },
    {
      "id": "-32.35366,115.80765",
      "name": "Caltex Baldivis",
      "brand": "Caltex",
      "address": "67 Ridge Bvd",
      "suburb": "Baldivis",
      "lat": -32.353665,
      "lng": 115.80765
    },
    {
      "id": "-31.85109,115.96879",
      "name": "Caltex Dayton",
      "brand": "Caltex",
      "address": "8 Repton St",
      "suburb": "Dayton",
      "lat": -31.851089,
      "lng": 115.968786
    },
    {
      "id": "-32.09315,115.78308",
      "name": "Caltex Hamilton Hill South",
      "brand": "Caltex",
      "address": "216 Rockingham Rd",
      "suburb": "Hamilton Hill",
      "lat": -32.093152,
      "lng": 115.783081
    },
    {
      "id": "-32.14267,115.97414",
      "name": "Caltex Forrestdale",
      "brand": "Caltex",
      "address": "4 Remisko Dr",
      "suburb": "Forrestdale",
      "lat": -32.14267,
      "lng": 115.974144
    },
    {
      "id": "-31.90461,115.84956",
      "name": "Caltex Yokine",
      "brand": "Caltex",
      "address": "398 Hector St",
      "suburb": "Yokine",
      "lat": -31.904611,
      "lng": 115.849565
    },
    {
      "id": "-31.88639,116.03186",
      "name": "Caltex Midvale",
      "brand": "Caltex",
      "address": "232 Morrison Rd",
      "suburb": "Midvale",
      "lat": -31.886391,
      "lng": 116.031862
    },
    {
      "id": "-31.85295,115.88206",
      "name": "Caltex Malaga",
      "brand": "Caltex",
      "address": "1896 Beach Rd",
      "suburb": "Malaga",
      "lat": -31.85295,
      "lng": 115.882059
    },
    {
      "id": "-32.07553,115.77952",
      "name": "Caltex Hamilton Hill North",
      "brand": "Caltex",
      "address": "224 Clontarf Rd",
      "suburb": "Hamilton Hill",
      "lat": -32.075531,
      "lng": 115.779519
    },
    {
      "id": "-31.72870,115.76494",
      "name": "Caltex Joondalup",
      "brand": "Caltex",
      "address": "49 Candlewood Bvd",
      "suburb": "Joondalup",
      "lat": -31.728704,
      "lng": 115.76494
    },
    {
      "id": "-31.87634,115.79678",
      "name": "Caltex Gwelup",
      "brand": "Caltex",
      "address": "1 Wishart St",
      "suburb": "Gwelup",
      "lat": -31.876337,
      "lng": 115.79678
    },
    {
      "id": "-32.32614,115.74976",
      "name": "Caltex Warnbro",
      "brand": "Caltex",
      "address": "649-651 Safety Bay Rd",
      "suburb": "Warnbro",
      "lat": -32.326142,
      "lng": 115.749757
    },
    {
      "id": "-31.96805,116.05302",
      "name": "Caltex Kalamunda",
      "brand": "Caltex",
      "address": "26 Kalamunda Rd",
      "suburb": "Kalamunda",
      "lat": -31.968055,
      "lng": 116.053017
    },
    {
      "id": "-31.65980,115.70613",
      "name": "Caltex Merriwa",
      "brand": "Caltex",
      "address": "4 Hughie Edwards Dr",
      "suburb": "Merriwa",
      "lat": -31.659802,
      "lng": 115.706131
    },
    {
      "id": "-32.12246,115.78419",
      "name": "Caltex Munster",
      "brand": "Caltex",
      "address": "512 Rockingham Rd",
      "suburb": "Munster",
      "lat": -32.122463,
      "lng": 115.784194
    },
    {
      "id": "-31.67127,115.74202",
      "name": "Caltex Neerabup",
      "brand": "Caltex",
      "address": "2056 Wanneroo Rd",
      "suburb": "Neerabup",
      "lat": -31.67127,
      "lng": 115.742022
    },
    {
      "id": "-31.96038,115.90192",
      "name": "Caltex Burswood",
      "brand": "Caltex",
      "address": "265 Great Eastern Hwy",
      "suburb": "Burswood",
      "lat": -31.960377,
      "lng": 115.901915
    },
    {
      "id": "-31.88714,115.93832",
      "name": "Caltex Kiara",
      "brand": "Caltex",
      "address": "157 Morley Dr",
      "suburb": "Kiara",
      "lat": -31.887138,
      "lng": 115.93832
    },
    {
      "id": "-32.24734,115.81698",
      "name": "Caltex Parmelia",
      "brand": "Caltex",
      "address": "60 Meares Ave",
      "suburb": "Kwinana Town Centre",
      "lat": -32.247336,
      "lng": 115.816983
    },
    {
      "id": "-31.93447,115.88401",
      "name": "Caltex Mount Lawley",
      "brand": "Caltex",
      "address": "81 Guildford Rd",
      "suburb": "Mount Lawley",
      "lat": -31.934473,
      "lng": 115.884014
    },
    {
      "id": "-31.81702,115.82113",
      "name": "Caltex Madeley",
      "brand": "Caltex",
      "address": "182 Wanneroo Rd",
      "suburb": "Madeley",
      "lat": -31.817018,
      "lng": 115.821127
    },
    {
      "id": "-31.99133,116.06428",
      "name": "Caltex Lesmurdie",
      "brand": "Caltex",
      "address": "194 Canning Rd",
      "suburb": "Lesmurdie",
      "lat": -31.991334,
      "lng": 116.064281
    },
    {
      "id": "-31.89906,116.01974",
      "name": "Caltex Bellevue",
      "brand": "Caltex",
      "address": "16-20 Clayton St",
      "suburb": "Bellevue",
      "lat": -31.899056,
      "lng": 116.019736
    },
    {
      "id": "-32.49325,115.74694",
      "name": "Caltex Meadow Springs",
      "brand": "Caltex",
      "address": "25 Meadow Springs Dr",
      "suburb": "Meadow Springs",
      "lat": -32.493251,
      "lng": 115.746945
    },
    {
      "id": "-31.91364,115.82836",
      "name": "Caltex Osborne Park",
      "brand": "Caltex",
      "address": "8 Main St",
      "suburb": "Osborne Park",
      "lat": -31.913639,
      "lng": 115.828363
    },
    {
      "id": "-32.00636,115.98881",
      "name": "Caltex Wattle Grove",
      "brand": "Caltex",
      "address": "604 Welshpool Rd East",
      "suburb": "Wattle Grove",
      "lat": -32.006356,
      "lng": 115.988809
    },
    {
      "id": "-32.03564,115.92703",
      "name": "Caltex Lynwood",
      "brand": "Caltex",
      "address": "2 Lynwood Ave",
      "suburb": "Lynwood",
      "lat": -32.035639,
      "lng": 115.927034
    },
    {
      "id": "-31.78617,115.81924",
      "name": "Caltex Wangara",
      "brand": "Caltex",
      "address": "1 Brady St",
      "suburb": "Wangara",
      "lat": -31.786174,
      "lng": 115.819241
    },
    {
      "id": "-31.99147,115.94647",
      "name": "Caltex Welshpool",
      "brand": "Caltex",
      "address": "23 Kewdale Rd",
      "suburb": "Welshpool",
      "lat": -31.991465,
      "lng": 115.946469
    },
    {
      "id": "-32.15103,116.01409",
      "name": "Caltex Armadale",
      "brand": "Caltex",
      "address": "10 Orchard Ave",
      "suburb": "Armadale",
      "lat": -32.151032,
      "lng": 116.01409
    },
    {
      "id": "-31.80112,115.84153",
      "name": "Caltex Landsdale",
      "brand": "Caltex",
      "address": "220 Gnangara Rd",
      "suburb": "Landsdale",
      "lat": -31.801116,
      "lng": 115.841526
    },
    {
      "id": "-31.90331,116.10467",
      "name": "Caltex Glen Forrest",
      "brand": "Caltex",
      "address": "1400 Great Eastern Hwy",
      "suburb": "Glen Forrest",
      "lat": -31.903307,
      "lng": 116.104671
    },
    {
      "id": "-31.90219,116.16461",
      "name": "Caltex Mundaring",
      "brand": "Caltex",
      "address": "7060 Great Eastern Hwy",
      "suburb": "Mundaring",
      "lat": -31.902194,
      "lng": 116.164609
    },
    {
      "id": "-31.80675,116.36192",
      "name": "Caltex Wooroloo",
      "brand": "Caltex",
      "address": "3381 Great Eastern Hwy",
      "suburb": "Wooroloo",
      "lat": -31.806747,
      "lng": 116.361916
    },
    {
      "id": "-32.55746,115.78687",
      "name": "Caltex Barragup",
      "brand": "Caltex",
      "address": "715 Pinjarra Rd",
      "suburb": "Barragup",
      "lat": -32.557456,
      "lng": 115.786873
    },
    {
      "id": "-31.82933,115.85283",
      "name": "Caltex Alexander Heights",
      "brand": "Caltex",
      "address": "200 Mirrabooka Ave",
      "suburb": "Alexander Heights",
      "lat": -31.829326,
      "lng": 115.852831
    },
    {
      "id": "-32.15551,115.77048",
      "name": "Caltex Henderson OPT",
      "brand": "Caltex",
      "address": "81 Quill Way",
      "suburb": "Henderson",
      "lat": -32.15551,
      "lng": 115.770485
    },
    {
      "id": "-31.93698,116.00803",
      "name": "Caltex High Wycombe OPT",
      "brand": "Caltex",
      "address": "494 Kalamunda Rd",
      "suburb": "High Wycombe",
      "lat": -31.936977,
      "lng": 116.008034
    },
    {
      "id": "-31.69367,115.71373",
      "name": "Caltex Mindarie",
      "brand": "Caltex",
      "address": "22 Anchorage Dr",
      "suburb": "Mindarie",
      "lat": -31.693672,
      "lng": 115.713732
    },
    {
      "id": "-31.93664,115.85796",
      "name": "Caltex North Perth",
      "brand": "Caltex",
      "address": "311 Fitzgerald St",
      "suburb": "West Perth",
      "lat": -31.936638,
      "lng": 115.85796
    },
    {
      "id": "-32.09992,116.11660",
      "name": "Caltex Karragullen",
      "brand": "Caltex",
      "address": "164 Brookton Hwy",
      "suburb": "Karragullen",
      "lat": -32.099918,
      "lng": 116.116604
    },
    {
      "id": "-32.29236,115.71055",
      "name": "Petro Fuels Shoalwater",
      "brand": "Caltex",
      "address": "113-121 Safety Bay Rd",
      "suburb": "Shoalwater",
      "lat": -32.292358,
      "lng": 115.71055
    },
    {
      "id": "-32.18201,116.07568",
      "name": "Caltex Bedfordale",
      "brand": "Caltex",
      "address": "681 Albany Hwy",
      "suburb": "Bedfordale",
      "lat": -32.18201,
      "lng": 116.07568
    },
    {
      "id": "-32.51228,115.73762",
      "name": "Caltex Mandurah",
      "brand": "Caltex",
      "address": "105 Reserve Dr",
      "suburb": "Mandurah",
      "lat": -32.512275,
      "lng": 115.737625
    },
    {
      "id": "-31.78575,115.82617",
      "name": "Caltex Pearsall",
      "brand": "Caltex",
      "address": "204 Shiraz Bvd",
      "suburb": "Pearsall",
      "lat": -31.785754,
      "lng": 115.826174
    },
    {
      "id": "-31.94629,115.93963",
      "name": "Caltex Belmont",
      "brand": "Caltex",
      "address": "33 Belvidere St",
      "suburb": "Belmont",
      "lat": -31.946289,
      "lng": 115.939633
    },
    {
      "id": "-28.76420,114.63368",
      "name": "Smart Mart Pure Convenience - Flores Rd",
      "brand": "BP",
      "address": "280 Fourth St",
      "suburb": "Wonthella",
      "lat": -28.7642,
      "lng": 114.633683
    },
    {
      "id": "-33.33959,115.72329",
      "name": "Condello's Liquor Waterloo",
      "brand": "Phoenix",
      "address": "14755 South Western Hwy",
      "suburb": "Picton East",
      "lat": -33.339593,
      "lng": 115.723288
    },
    {
      "id": "-32.04723,115.93237",
      "name": "Caltex Langford",
      "brand": "Caltex",
      "address": "230-234 Nicholson Rd",
      "suburb": "Langford",
      "lat": -32.04723,
      "lng": 115.932375
    },
    {
      "id": "-32.11871,116.01659",
      "name": "Caltex Kelmscott",
      "brand": "Caltex",
      "address": "2907 Albany Hwy",
      "suburb": "Kelmscott",
      "lat": -32.118708,
      "lng": 116.016589
    },
    {
      "id": "-32.04115,115.73884",
      "name": "Ampol Rous Head",
      "brand": "Ampol",
      "address": "Cnr North Mole Dr & Rous Head Rd",
      "suburb": "North Fremantle",
      "lat": -32.041146,
      "lng": 115.738844
    },
    {
      "id": "-28.79135,114.61622",
      "name": "Shell Reddy Express Tarcoola",
      "brand": "Reddy Express",
      "address": "2 Fortyn Ct",
      "suburb": "Mahomets Flats",
      "lat": -28.791355,
      "lng": 114.616223
    },
    {
      "id": "-28.76928,114.62440",
      "name": "Shell Reddy Express Wonthella",
      "brand": "Reddy Express",
      "address": "115 North West Coastal Hwy",
      "suburb": "Wonthella",
      "lat": -28.76928,
      "lng": 114.624398
    },
    {
      "id": "-34.02639,115.10003",
      "name": "Vibe Witchcliffe",
      "brand": "Vibe",
      "address": "10428 Bussell Hwy",
      "suburb": "Witchcliffe",
      "lat": -34.026394,
      "lng": 115.100027
    },
    {
      "id": "-33.68423,115.23136",
      "name": "United Vasse Truck Stop",
      "brand": "United",
      "address": "210 Northerly St",
      "suburb": "Vasse",
      "lat": -33.684229,
      "lng": 115.23136
    },
    {
      "id": "-28.74142,114.62246",
      "name": "Petro Fuels Bluff Point",
      "brand": "Petro Fuels",
      "address": "381 Chapman Rd",
      "suburb": "Bluff Point",
      "lat": -28.74142,
      "lng": 114.622456
    },
    {
      "id": "-30.74842,121.46877",
      "name": "Fuel & Fly Kalgoorlie",
      "brand": "Eagle",
      "address": "104 Brookman St",
      "suburb": "Kalgoorlie",
      "lat": -30.74842255,
      "lng": 121.46876662
    },
    {
      "id": "-30.77711,121.43125",
      "name": "Eagle West Kalgoorlie Truckstop",
      "brand": "Eagle",
      "address": "2 Brinsden Rd",
      "suburb": "West Kalgoorlie",
      "lat": -30.777107,
      "lng": 121.431253
    },
    {
      "id": "-33.28377,115.74777",
      "name": "Vibe Treendale",
      "brand": "Vibe",
      "address": "157 Grand Ent",
      "suburb": "Australind",
      "lat": -33.283775,
      "lng": 115.747767
    },
    {
      "id": "-32.13536,116.00948",
      "name": "Lori's Fuel Supply",
      "brand": "Independent",
      "address": "259 Railway Ave",
      "suburb": "Kelmscott",
      "lat": -32.135359,
      "lng": 116.009481
    },
    {
      "id": "-28.78438,114.62947",
      "name": "United Rangeway Truck Stop",
      "brand": "United",
      "address": "50 Rifle Range Rd",
      "suburb": "Rangeway",
      "lat": -28.784376,
      "lng": 114.629472
    },
    {
      "id": "-33.27935,115.71400",
      "name": "BP 2go Australind",
      "brand": "BP",
      "address": "80 Old Coast Rd",
      "suburb": "Australind",
      "lat": -33.279353,
      "lng": 115.713998
    },
    {
      "id": "-33.31105,115.69669",
      "name": "Ampol Foodary Eaton",
      "brand": "Ampol",
      "address": "1 Pratt Rd",
      "suburb": "Eaton",
      "lat": -33.311051,
      "lng": 115.69669
    },
    {
      "id": "-34.95987,117.88672",
      "name": "Ampol Albany Diesel Stop",
      "brand": "Ampol",
      "address": "634 Menang Dr",
      "suburb": "Willyung",
      "lat": -34.959873,
      "lng": 117.886725
    },
    {
      "id": "-35.00563,117.87441",
      "name": "Ampol Foodary North Road",
      "brand": "Ampol",
      "address": "204 North Rd",
      "suburb": "Yakamia",
      "lat": -35.005628,
      "lng": 117.874414
    },
    {
      "id": "-33.32146,115.71545",
      "name": "7-Eleven Eaton",
      "brand": "7-Eleven",
      "address": "15 Albatross Cres",
      "suburb": "Eaton",
      "lat": -33.321455,
      "lng": 115.715447
    },
    {
      "id": "-33.67518,115.25121",
      "name": "Shell Reddy Express Vasse",
      "brand": "Reddy Express",
      "address": "2 Napoleon Prom",
      "suburb": "Vasse",
      "lat": -33.675175,
      "lng": 115.251206
    },
    {
      "id": "-31.63520,116.71624",
      "name": "Atlas Fresh Trading Co Northam",
      "brand": "Atlas",
      "address": "Cnr Great Eastern Hwy & Yilgarn Ave",
      "suburb": "Malabaine",
      "lat": -31.635198,
      "lng": 116.71624
    },
    {
      "id": "-32.53582,115.73754",
      "name": "NightOwl BP Mandurah",
      "brand": "BP",
      "address": "304 Pinjarra Rd",
      "suburb": "Mandurah",
      "lat": -32.535819,
      "lng": 115.737541
    },
    {
      "id": "-33.34491,115.70857",
      "name": "BP Picton Wetherley Dr",
      "brand": "BP",
      "address": "24 Wetherly Dr",
      "suburb": "Picton",
      "lat": -33.344909,
      "lng": 115.708573
    },
    {
      "id": "-33.34149,115.65014",
      "name": "BP Parklands",
      "brand": "BP",
      "address": "85 Forrest Ave",
      "suburb": "South Bunbury",
      "lat": -33.341493,
      "lng": 115.650141
    },
    {
      "id": "-33.65249,115.34435",
      "name": "BP Busselton",
      "brand": "BP",
      "address": "26 Albert St",
      "suburb": "Busselton",
      "lat": -33.652488,
      "lng": 115.344349
    },
    {
      "id": "-33.34525,115.64081",
      "name": "BP South Bunbury",
      "brand": "BP",
      "address": "188 Spencer St",
      "suburb": "South Bunbury",
      "lat": -33.345254,
      "lng": 115.640814
    },
    {
      "id": "-33.25962,115.83693",
      "name": "GD's Brunswick Roadhouse",
      "brand": "Ampol",
      "address": "94 Ommaney Rd",
      "suburb": "Brunswick",
      "lat": -33.259623,
      "lng": 115.836934
    },
    {
      "id": "-31.67266,115.70828",
      "name": "Astron Quinns Rocks",
      "brand": "Astron",
      "address": "121 Quinns Rd",
      "suburb": "Quinns Rocks",
      "lat": -31.672657,
      "lng": 115.708282
    },
    {
      "id": "-31.64978,116.67706",
      "name": "Dunning's Northam",
      "brand": "Shell",
      "address": "38 Peel Tce",
      "suburb": "Northam",
      "lat": -31.649776,
      "lng": 116.677064
    },
    {
      "id": "-33.95989,115.07641",
      "name": "Better Choice Margaret River",
      "brand": "Better Choice",
      "address": "211 Bussell Hwy",
      "suburb": "Margaret River",
      "lat": -33.95989,
      "lng": 115.076412
    },
    {
      "id": "-30.75297,121.47542",
      "name": "Liberty Kalgoorlie",
      "brand": "Liberty",
      "address": "69-71 Wilson St",
      "suburb": "Kalgoorlie",
      "lat": -30.752968,
      "lng": 121.475421
    },
    {
      "id": "-31.62143,115.68875",
      "name": "X Convenience Alkimos",
      "brand": "X Convenience",
      "address": "58 Montana Cres",
      "suburb": "Alkimos",
      "lat": -31.621433,
      "lng": 115.688754
    },
    {
      "id": "-33.32363,115.77021",
      "name": "Gull Waterloo",
      "brand": "Gull",
      "address": "14270 South Western Hwy",
      "suburb": "Waterloo",
      "lat": -33.323631,
      "lng": 115.770208
    },
    {
      "id": "-31.89332,116.76804",
      "name": "Gull York Roadhouse",
      "brand": "Gull",
      "address": "63 Avon Tce",
      "suburb": "York",
      "lat": -31.89332,
      "lng": 116.768037
    },
    {
      "id": "-31.89067,116.76861",
      "name": "Smiths Shell Service",
      "brand": "Shell",
      "address": "86 Avon Tce",
      "suburb": "York",
      "lat": -31.890671,
      "lng": 116.768606
    },
    {
      "id": "-33.57573,115.82520",
      "name": "Vibe Donnybrook",
      "brand": "Vibe",
      "address": "45 South Western Hwy",
      "suburb": "Donnybrook",
      "lat": -33.57573,
      "lng": 115.8252
    },
    {
      "id": "-31.88558,116.03033",
      "name": "Atlas Fuel Midvale",
      "brand": "Atlas",
      "address": "227 Morrison Rd",
      "suburb": "Midvale",
      "lat": -31.885583,
      "lng": 116.030335
    },
    {
      "id": "-33.14962,115.68835",
      "name": "Ampol Binningup",
      "brand": "Ampol",
      "address": "21 Coronation Dr",
      "suburb": "Binningup",
      "lat": -33.149621,
      "lng": 115.688353
    },
    {
      "id": "-31.88640,116.03098",
      "name": "BP 2go Morrison Road",
      "brand": "BP",
      "address": "228 Morrison Rd",
      "suburb": "Midvale",
      "lat": -31.886395,
      "lng": 116.030977
    },
    {
      "id": "-32.36478,115.99170",
      "name": "Serpentine Falls Roadhouse",
      "brand": "Independent",
      "address": "2 Falls Rd",
      "suburb": "Serpentine",
      "lat": -32.364781,
      "lng": 115.991703
    },
    {
      "id": "-31.89461,115.89667",
      "name": "BP Connect Wellington Rd",
      "brand": "BP",
      "address": "261 Walter Rd West",
      "suburb": "Morley",
      "lat": -31.894607,
      "lng": 115.896666
    },
    {
      "id": "-31.87586,115.89422",
      "name": "BP 2go Noranda",
      "brand": "BP",
      "address": "40 Benara Rd",
      "suburb": "Noranda",
      "lat": -31.875859,
      "lng": 115.894223
    },
    {
      "id": "-33.63799,115.37639",
      "name": "Geographe IGA",
      "brand": "Liberty",
      "address": "328 Marine Tce",
      "suburb": "Geographe",
      "lat": -33.637987,
      "lng": 115.37639
    },
    {
      "id": "-34.96088,117.35400",
      "name": "United Denmark",
      "brand": "United",
      "address": "45 South Coast Hwy",
      "suburb": "Denmark",
      "lat": -34.960883,
      "lng": 117.353996
    },
    {
      "id": "-29.25182,114.94046",
      "name": "BP Roadhouse Dongara",
      "brand": "BP",
      "address": "30373 Brand Hwy",
      "suburb": "Dongara",
      "lat": -29.251818,
      "lng": 114.940463
    },
    {
      "id": "-32.19989,115.78184",
      "name": "BP Naval Base",
      "brand": "BP",
      "address": "1351 Rockingham Rd",
      "suburb": "Naval Base",
      "lat": -32.199892,
      "lng": 115.781843
    },
    {
      "id": "-34.96048,117.35360",
      "name": "BP Denmark",
      "brand": "BP",
      "address": "44 South Coast Hwy",
      "suburb": "Denmark",
      "lat": -34.960484,
      "lng": 117.353598
    },
    {
      "id": "-30.98305,115.70204",
      "name": "Windmill Roadhouse",
      "brand": "Liberty",
      "address": "1 Darch St",
      "suburb": "Regans Ford",
      "lat": -30.983045,
      "lng": 115.702039
    },
    {
      "id": "-31.63306,117.72717",
      "name": "United Kellerberrin Truck Stop",
      "brand": "United",
      "address": "150 Massingham St",
      "suburb": "Kellerberrin",
      "lat": -31.633056,
      "lng": 117.727173
    },
    {
      "id": "-31.89510,115.92321",
      "name": "BP Embleton",
      "brand": "BP",
      "address": "484 Walter Rd East",
      "suburb": "Embleton",
      "lat": -31.8951,
      "lng": 115.923206
    },
    {
      "id": "-33.39307,115.64153",
      "name": "Ampol Foodary Gelorup",
      "brand": "Ampol",
      "address": "39 Bussell Hwy",
      "suburb": "Gelorup",
      "lat": -33.393066,
      "lng": 115.641528
    },
    {
      "id": "-33.66756,115.35000",
      "name": "Ampol Foodary Busselton",
      "brand": "Ampol",
      "address": "115 Strelly St",
      "suburb": "Busselton",
      "lat": -33.667563,
      "lng": 115.35
    },
    {
      "id": "-32.06342,115.93631",
      "name": "BP Thornlie",
      "brand": "BP",
      "address": "459 Nicholson Rd",
      "suburb": "Canning Vale",
      "lat": -32.063416,
      "lng": 115.936309
    },
    {
      "id": "-33.34883,115.69909",
      "name": "Ampol Picton Depot With Front",
      "brand": "Ampol",
      "address": "1 Wimbridge Rd",
      "suburb": "Picton",
      "lat": -33.348833,
      "lng": 115.699093
    },
    {
      "id": "-33.28332,115.74614",
      "name": "7-Eleven Treendale",
      "brand": "7-Eleven",
      "address": "147-149 Grand Ent",
      "suburb": "Australind",
      "lat": -33.28332,
      "lng": 115.746137
    },
    {
      "id": "-33.66237,115.35823",
      "name": "Caltex Busselton",
      "brand": "Caltex",
      "address": "99 Causeway Rd",
      "suburb": "Busselton",
      "lat": -33.662368,
      "lng": 115.358227
    },
    {
      "id": "-35.00462,117.86616",
      "name": "Caltex Mt Melville",
      "brand": "Caltex",
      "address": "317 Albany Hwy",
      "suburb": "Mount Melville",
      "lat": -35.004623,
      "lng": 117.866163
    },
    {
      "id": "-33.31979,115.71715",
      "name": "EG Ampol Eaton",
      "brand": "EG Ampol",
      "address": "2 Recreation Dr",
      "suburb": "Eaton",
      "lat": -33.319792,
      "lng": 115.71715
    },
    {
      "id": "-33.33839,115.65908",
      "name": "EG Ampol Bunbury",
      "brand": "EG Ampol",
      "address": "Lot 68 Pennant Rd",
      "suburb": "East Bunbury",
      "lat": -33.338395,
      "lng": 115.659082
    },
    {
      "id": "-34.98858,117.87629",
      "name": "EG Ampol Brooks Garden",
      "brand": "EG Ampol",
      "address": "162 Chester Pass Rd",
      "suburb": "Lange",
      "lat": -34.988578,
      "lng": 117.876293
    },
    {
      "id": "-28.77592,114.61117",
      "name": "EG Ampol Geraldton",
      "brand": "EG Ampol",
      "address": "59 Cathedral Ave",
      "suburb": "Geraldton",
      "lat": -28.775922,
      "lng": 114.611172
    },
    {
      "id": "-33.39705,115.63628",
      "name": "7-Eleven Dalyellup",
      "brand": "7-Eleven",
      "address": "51 Tiffany Ctr",
      "suburb": "Dalyellup",
      "lat": -33.397049,
      "lng": 115.636276
    },
    {
      "id": "-33.34579,115.66200",
      "name": "7-Eleven Bunbury East",
      "brand": "7-Eleven",
      "address": "8D Picton Rd",
      "suburb": "East Bunbury",
      "lat": -33.345787,
      "lng": 115.662
    },
    {
      "id": "-28.80275,114.62100",
      "name": "Caltex Tarcoola",
      "brand": "Caltex",
      "address": "156 Brand Hwy",
      "suburb": "Tarcoola Beach",
      "lat": -28.802745,
      "lng": 114.620996
    },
    {
      "id": "-28.79233,114.61697",
      "name": "Metro Geraldton",
      "brand": "Metro Petroleum",
      "address": "1 Fortyn Ct",
      "suburb": "Mahomets Flats",
      "lat": -28.792328,
      "lng": 114.616974
    },
    {
      "id": "-33.46841,115.59471",
      "name": "Caltex Stratham",
      "brand": "Caltex",
      "address": "1540 Bussell Hwy",
      "suburb": "Stratham",
      "lat": -33.468407,
      "lng": 115.594715
    },
    {
      "id": "-33.36042,115.64358",
      "name": "Caltex Bunbury South",
      "brand": "Caltex",
      "address": "1 Brittain Rd",
      "suburb": "Carey Park",
      "lat": -33.360416,
      "lng": 115.643581
    },
    {
      "id": "-33.36306,115.62968",
      "name": "7-Eleven Withers",
      "brand": "7-Eleven",
      "address": "1 Island Queen St",
      "suburb": "Withers",
      "lat": -33.36306,
      "lng": 115.629685
    },
    {
      "id": "-33.33474,115.68532",
      "name": "Shell Reddy Express Bunbury Gateway",
      "brand": "Reddy Express",
      "address": "9805 Forrest Hwy",
      "suburb": "Glen Iris",
      "lat": -33.334737,
      "lng": 115.685315
    },
    {
      "id": "-33.66089,115.35566",
      "name": "Shell Reddy Express Busselton",
      "brand": "Reddy Express",
      "address": "88 Causeway Rd",
      "suburb": "Busselton",
      "lat": -33.660891,
      "lng": 115.355661
    },
    {
      "id": "-35.00237,117.86513",
      "name": "Shell Reddy Express Albany Orana",
      "brand": "Reddy Express",
      "address": "342 Albany Hwy",
      "suburb": "Orana",
      "lat": -35.002367,
      "lng": 117.865131
    },
    {
      "id": "-33.33448,115.68227",
      "name": "Shell Reddy Express Bunbury Outbound",
      "brand": "Reddy Express",
      "address": "9850 Forrest Hwy",
      "suburb": "Vittoria",
      "lat": -33.334477,
      "lng": 115.682266
    },
    {
      "id": "-32.03521,115.99920",
      "name": "Caltex Maddington Truck Stop",
      "brand": "Caltex",
      "address": "18 Orchard Rd",
      "suburb": "Maddington",
      "lat": -32.035207,
      "lng": 115.999195
    },
    {
      "id": "-31.86974,116.03438",
      "name": "Atlas Fuel Stratton",
      "brand": "Atlas",
      "address": "177 O'Connor Rd",
      "suburb": "Stratton",
      "lat": -31.869738,
      "lng": 116.034377
    },
    {
      "id": "-31.76345,115.77340",
      "name": "Caltex Edgewater",
      "brand": "Caltex",
      "address": "2 The Gateway",
      "suburb": "Edgewater",
      "lat": -31.763449,
      "lng": 115.773396
    },
    {
      "id": "-28.74609,114.62480",
      "name": "7-Eleven Geraldton North",
      "brand": "7-Eleven",
      "address": "215 Flores Rd",
      "suburb": "Spalding",
      "lat": -28.746087,
      "lng": 114.624799
    },
    {
      "id": "-33.96608,115.07174",
      "name": "Geographe Petroleum Margaret River",
      "brand": "Liberty",
      "address": "12 Auger Way",
      "suburb": "Margaret River",
      "lat": -33.96608,
      "lng": 115.071736
    },
    {
      "id": "-32.42743,115.77467",
      "name": "Karnup Roadhouse",
      "brand": "BP",
      "address": "2263 Mandurah Rd",
      "suburb": "Karnup",
      "lat": -32.427429,
      "lng": 115.77467
    },
    {
      "id": "-33.35949,116.15031",
      "name": "Gull Collie",
      "brand": "Gull",
      "address": "143 Throssell St",
      "suburb": "Collie",
      "lat": -33.359487,
      "lng": 116.150307
    },
    {
      "id": "-34.94919,117.94370",
      "name": "Shell Lower King Liquor & General",
      "brand": "Shell",
      "address": "629 Lower King Rd",
      "suburb": "Lower King",
      "lat": -34.949189,
      "lng": 117.943697
    },
    {
      "id": "-33.85513,115.10053",
      "name": "BP Cowaramup",
      "brand": "BP",
      "address": "1 Roy Earl Dr",
      "suburb": "Cowaramup",
      "lat": -33.855134,
      "lng": 115.100534
    },
    {
      "id": "-33.35972,116.15277",
      "name": "Ampol Collie",
      "brand": "Ampol",
      "address": "124 Throssell St",
      "suburb": "Collie",
      "lat": -33.359719,
      "lng": 116.152771
    },
    {
      "id": "-33.03445,115.73406",
      "name": "Caltex Myalup",
      "brand": "Caltex",
      "address": "6043 Forrest Hwy",
      "suburb": "Myalup",
      "lat": -33.034452,
      "lng": 115.734058
    },
    {
      "id": "-33.12601,115.72012",
      "name": "Caltex Binningup",
      "brand": "Caltex",
      "address": "7080 Forrest Hwy",
      "suburb": "Binningup",
      "lat": -33.126014,
      "lng": 115.72012
    },
    {
      "id": "-33.63500,115.11568",
      "name": "7-Eleven Dunsborough",
      "brand": "7-Eleven",
      "address": "100 Commonage Rd",
      "suburb": "Dunsborough",
      "lat": -33.634996,
      "lng": 115.115684
    },
    {
      "id": "-33.35735,116.15194",
      "name": "Shell Reddy Express Collie",
      "brand": "Reddy Express",
      "address": "57 Johnston St",
      "suburb": "Collie",
      "lat": -33.357345,
      "lng": 116.151939
    },
    {
      "id": "-33.61679,115.10267",
      "name": "Shell Reddy Express Dunsborough",
      "brand": "Reddy Express",
      "address": "64 Dunn Bay Rd",
      "suburb": "Dunsborough",
      "lat": -33.616785,
      "lng": 115.102669
    },
    {
      "id": "-33.94686,115.07466",
      "name": "Shell Reddy Express Margaret River",
      "brand": "Reddy Express",
      "address": "77 Bussell Hwy",
      "suburb": "Margaret River",
      "lat": -33.946859,
      "lng": 115.074659
    },
    {
      "id": "-34.20225,115.09902",
      "name": "Better Choice Karridale Roadhouse",
      "brand": "Better Choice",
      "address": "12440 Bussell Hwy",
      "suburb": "Karridale",
      "lat": -34.202254,
      "lng": 115.099018
    },
    {
      "id": "-34.96176,117.35116",
      "name": "Petro Fuels Denmark",
      "brand": "Petro Fuels",
      "address": "69 South Coast Hwy",
      "suburb": "Denmark",
      "lat": -34.96176,
      "lng": 117.35116
    },
    {
      "id": "-32.83584,115.91788",
      "name": "De Rosa's Highway Motors",
      "brand": "Independent",
      "address": "8222 South Western Hwy",
      "suburb": "Waroona",
      "lat": -32.835836,
      "lng": 115.917882
    },
    {
      "id": "-28.82361,114.69022",
      "name": "Maisey Fuels Rudds Gully",
      "brand": "Maisey Fuels",
      "address": "512 Rudds Gully Rd",
      "suburb": "Narngulu",
      "lat": -28.823606,
      "lng": 114.690221
    },
    {
      "id": "-28.75603,114.63071",
      "name": "Maisey Fuels Flores Road",
      "brand": "Maisey Fuels",
      "address": "83 Flores Rd",
      "suburb": "Webberton",
      "lat": -28.756027,
      "lng": 114.630711
    },
    {
      "id": "-33.55165,115.56337",
      "name": "Colroy Country Kitchen",
      "brand": "Ampol",
      "address": "93 Capel Dr",
      "suburb": "Capel",
      "lat": -33.551653,
      "lng": 115.563367
    },
    {
      "id": "-33.83235,121.89370",
      "name": "WFG Shell Esperance OPT",
      "brand": "Shell",
      "address": "209 Harbour Rd (entrance via Fairfield St)",
      "suburb": "Chadwick",
      "lat": -33.83235,
      "lng": 121.8937
    },
    {
      "id": "-33.28162,115.74369",
      "name": "EG Ampol Australind",
      "brand": "EG Ampol",
      "address": "Cnr Grand Ent & The Promenade",
      "suburb": "Australind",
      "lat": -33.281621,
      "lng": 115.74369
    },
    {
      "id": "-31.64036,117.49123",
      "name": "Caltex Tammin",
      "brand": "Caltex",
      "address": "15323 Great Eastern Hwy",
      "suburb": "Tammin",
      "lat": -31.640361,
      "lng": 117.491228
    },
    {
      "id": "-32.03165,115.80896",
      "name": "BP Attadale",
      "brand": "BP",
      "address": "530 Canning Hwy",
      "suburb": "Attadale",
      "lat": -32.031651,
      "lng": 115.808961
    },
    {
      "id": "-30.75298,121.46601",
      "name": "BP Golden Gate",
      "brand": "BP",
      "address": "438 Hannan St",
      "suburb": "Kalgoorlie",
      "lat": -30.752976,
      "lng": 121.466012
    },
    {
      "id": "-31.91126,115.84693",
      "name": "BP Dog Swamp",
      "brand": "BP",
      "address": "4 Wanneroo Rd",
      "suburb": "Yokine",
      "lat": -31.911261,
      "lng": 115.846928
    },
    {
      "id": "-31.89446,115.90533",
      "name": "BP Morley",
      "brand": "BP",
      "address": "335 Walter Rd West",
      "suburb": "Morley",
      "lat": -31.89446,
      "lng": 115.90533
    },
    {
      "id": "-30.75297,121.48053",
      "name": "Ampol Foodary Kalgoorlie South",
      "brand": "Ampol",
      "address": "146 Boulder Rd",
      "suburb": "South Kalgoorlie",
      "lat": -30.752973,
      "lng": 121.480526
    },
    {
      "id": "-30.76479,121.45235",
      "name": "Ampol Foodary Kalgoorlie",
      "brand": "Ampol",
      "address": "581 Hannan St",
      "suburb": "Somerville",
      "lat": -30.764786,
      "lng": 121.452347
    },
    {
      "id": "-30.78094,121.43359",
      "name": "Ampol Kalgoorlie Diesel Stop",
      "brand": "Ampol",
      "address": "2 Cunningham Rd",
      "suburb": "West Kalgoorlie",
      "lat": -30.780942,
      "lng": 121.433593
    },
    {
      "id": "-30.75322,115.55862",
      "name": "Petro Fuels Cataby",
      "brand": "Ampol",
      "address": "10513 Brand Hwy",
      "suburb": "Cataby",
      "lat": -30.753218,
      "lng": 115.558623
    },
    {
      "id": "-30.74687,121.47580",
      "name": "Caltex Kalgoorlie",
      "brand": "Caltex",
      "address": "77 Egan St",
      "suburb": "Kalgoorlie",
      "lat": -30.746874,
      "lng": 121.475796
    },
    {
      "id": "-30.73892,121.46606",
      "name": "Caltex Piccadilly",
      "brand": "Caltex",
      "address": "7 Maritana St",
      "suburb": "Piccadilly",
      "lat": -30.738923,
      "lng": 121.46606
    },