{
  "updated": "2026-04-20T16:31:37+08:00",
  "fuel_types": {
    "ulp": [
      {
        "station": "Burk Cannington",
        "brand": "Burk",
        "address": "1510 Albany Hwy",
        "suburb": "Beckenham",
        "price": 177.3,
        "lat": -32.027183,
        "lng": 115.950013
      },
      {
        "station": "Burk Oakford",
        "brand": "Burk",
        "address": "1526 Thomas Rd",
        "suburb": "Oakford",
        "price": 177.3,
        "lat": -32.205041,
        "lng": 115.926114
      },
      {
        "station": "Vibe Ascot",
        "brand": "Vibe",
        "address": "268 Great Eastern Hwy",
        "suburb": "Ascot",
        "price": 178.5,
        "lat": -31.935968,
        "lng": 115.934361
      },
      {
        "station": "Vibe Oakford Truckstop",
        "brand": "Vibe",
        "address": "1780 Thomas Rd",
        "suburb": "Oakford",
        "price": 178.5,
        "lat": -32.209305,
        "lng": 115.952279
      },
      {
        "station": "Costco Perth Airport",
        "brand": "Costco",
        "address": "142 Dunreath Dr",
        "suburb": "Perth Airport",
        "price": 178.7,
        "lat": -31.940377,
        "lng": 115.951869
      },
      {
        "station": "Costco Casuarina",
        "brand": "Costco",
        "address": "137 Market St",
        "suburb": "Casuarina",
        "price": 178.7,
        "lat": -32.233481,
        "lng": 115.853714
      },
      {
        "station": "Shell Bullsbrook",
        "brand": "Shell",
        "address": "2539 Great Northern Hwy",
        "suburb": "Bullsbrook",
        "price": 179.0,
        "lat": -31.671536,
        "lng": 116.031446
      },
      {
        "station": "Liberty Beckenham",
        "brand": "Liberty",
        "address": "63 William St",
        "suburb": "Beckenham",
        "price": 179.3,
        "lat": -32.022054,
        "lng": 115.954779
      },
      {
        "station": "Burk Landsdale",
        "brand": "Burk",
        "address": "274 Gnangara Rd",
        "suburb": "Landsdale",
        "price": 179.3,
        "lat": -31.79903,
        "lng": 115.847126
      },
      {
        "station": "Shell High Wycombe",
        "brand": "Shell",
        "address": "1100 Abernethy Rd",
        "suburb": "High Wycombe",
        "price": 179.5,
        "lat": -31.938206,
        "lng": 115.992146
      },
      {
        "station": "Liberty Naval Base",
        "brand": "Liberty",
        "address": "24 Dooley St",
        "suburb": "Naval Base",
        "price": 179.5,
        "lat": -32.197618,
        "lng": 115.783018
      },
      {
        "station": "Vibe Morley",
        "brand": "Vibe",
        "address": "430 Morley Dr",
        "suburb": "Morley",
        "price": 179.7,
        "lat": -31.887832,
        "lng": 115.889889
      },
      {
        "station": "OMG Metro Dianella",
        "brand": "OMG Metro",
        "address": "63 Walter Rd West",
        "suburb": "Dianella",
        "price": 179.9,
        "lat": -31.906435,
        "lng": 115.881917
      },
      {
        "station": "Atlas Fuel Thornlie",
        "brand": "Atlas",
        "address": "223 Yale Rd",
        "suburb": "Thornlie",
        "price": 179.9,
        "lat": -32.061092,
        "lng": 115.939257
      },
      {
        "station": "Atlas Fuel Welshpool",
        "brand": "Atlas",
        "address": "36 Welshpool Rd",
        "suburb": "Welshpool",
        "price": 179.9,
        "lat": -31.993707,
        "lng": 115.919139
      },
      {
        "station": "Burk Alkimos",
        "brand": "Burk",
        "address": "12 Longstaff Ave",
        "suburb": "Alkimos",
        "price": 181.3,
        "lat": -31.628239,
        "lng": 115.69118
      },
      {
        "station": "Burk Camillo",
        "brand": "Burk",
        "address": "Cnr Westfield Rd & Ypres Rd",
        "suburb": "Camillo",
        "price": 181.3,
        "lat": -32.118652,
        "lng": 116.002556
      },
      {
        "station": "Burk Bassendean",
        "brand": "Burk",
        "address": "309 Guildford Rd",
        "suburb": "Bassendean",
        "price": 181.3,
        "lat": -31.901105,
        "lng": 115.959118
      },
      {
        "station": "Burk Malaga",
        "brand": "Burk",
        "address": "1 Harlond Ave",
        "suburb": "Malaga",
        "price": 181.3,
        "lat": -31.855778,
        "lng": 115.891559
      },
      {
        "station": "Burk Mount Lawley",
        "brand": "Burk",
        "address": "791 Beaufort St",
        "suburb": "Mount Lawley",
        "price": 181.3,
        "lat": -31.925887,
        "lng": 115.880225
      },
      {
        "station": "Atlas Fuel Forrestdale",
        "brand": "Atlas",
        "address": "12 Antsey Rd",
        "suburb": "Forrestdale",
        "price": 181.5,
        "lat": -32.147176,
        "lng": 115.937714
      },
      {
        "station": "Atlas Fuel Kwinana",
        "brand": "Atlas",
        "address": "1 Mandurah Rd",
        "suburb": "Kwinana Beach",
        "price": 181.5,
        "lat": -32.235848,
        "lng": 115.780215
      },
      {
        "station": "Vibe Canning Vale",
        "brand": "Vibe",
        "address": "6 Birnam Rd",
        "suburb": "Canning Vale",
        "price": 181.5,
        "lat": -32.075096,
        "lng": 115.922947
      },
      {
        "station": "Atlas Fuel Ascot",
        "brand": "Atlas",
        "address": "472 Great Eastern Hwy",
        "suburb": "Ascot",
        "price": 181.5,
        "lat": -31.925213,
        "lng": 115.951987
      },
      {
        "station": "Atlas Fuel Forrestfield",
        "brand": "Atlas",
        "address": "78C Hale Rd",
        "suburb": "Forrestfield",
        "price": 181.5,
        "lat": -31.988049,
        "lng": 116.008437
      },
      {
        "station": "Vibe Forrestfield",
        "brand": "Vibe",
        "address": "159 Milner Rd",
        "suburb": "Forrestfield",
        "price": 181.7,
        "lat": -31.961356,
        "lng": 115.992227
      },
      {
        "station": "United Leda",
        "brand": "United",
        "address": "2 Feilman Dr",
        "suburb": "Leda",
        "price": 181.9,
        "lat": -32.260187,
        "lng": 115.806552
      },
      {
        "station": "United Kewdale Truck Stop",
        "brand": "United",
        "address": "410-412 Orrong Rd",
        "suburb": "Kewdale",
        "price": 181.9,
        "lat": -31.990047,
        "lng": 115.939258
      },
      {
        "station": "United East Victoria Park",
        "brand": "United",
        "address": "916 Albany Hwy",
        "suburb": "East Victoria Park",
        "price": 181.9,
        "lat": -31.98781,
        "lng": 115.905402
      },
      {
        "station": "United Naval Base Truck Stop",
        "brand": "United",
        "address": "13 Lionel St",
        "suburb": "Naval Base",
        "price": 181.9,
        "lat": -32.195425,
        "lng": 115.783106
      },
      {
        "station": "Atlas Fuel Golden Bay",
        "brand": "Atlas",
        "address": "2 Aurea Bvd",
        "suburb": "Golden Bay",
        "price": 181.9,
        "lat": -32.42028,
        "lng": 115.760489
      },
      {
        "station": "Liberty Banksia Grove",
        "brand": "Liberty",
        "address": "7 Honeybee Pde",
        "suburb": "Banksia Grove",
        "price": 182.5,
        "lat": -31.703225,
        "lng": 115.798512
      },
      {
        "station": "Liberty Tapping",
        "brand": "Liberty",
        "address": "3 Herdsman Lane",
        "suburb": "Wanneroo",
        "price": 182.5,
        "lat": -31.720162,
        "lng": 115.783898
      },
      {
        "station": "Vibe Welshpool",
        "brand": "Vibe",
        "address": "124 Welshpool Rd",
        "suburb": "Welshpool",
        "price": 182.7,
        "lat": -31.994327,
        "lng": 115.930681
      },
      {
        "station": "FastFuel 24/7",
        "brand": "FastFuel 24/7",
        "address": "54 Cumberland Rd",
        "suburb": "Forrestfield",
        "price": 182.9,
        "lat": -31.995465,
        "lng": 116.01183
      },
      {
        "station": "Vibe Armadale",
        "brand": "Vibe",
        "address": "126 Forrest Rd",
        "suburb": "Armadale",
        "price": 183.3,
        "lat": -32.158168,
        "lng": 116.001834
      },
      {
        "station": "Vibe Beechboro",
        "brand": "Vibe",
        "address": "495 Beechboro Rd North",
        "suburb": "Beechboro",
        "price": 183.3,
        "lat": -31.869,
        "lng": 115.924439
      },
      {
        "station": "Vibe Wanneroo",
        "brand": "Vibe",
        "address": "964 Wanneroo Rd",
        "suburb": "Wanneroo",
        "price": 183.3,
        "lat": -31.751382,
        "lng": 115.803426
      },
      {
        "station": "Burk West Swan",
        "brand": "Burk",
        "address": "6639 West Swan Rd",
        "suburb": "West Swan",
        "price": 183.3,
        "lat": -31.839036,
        "lng": 115.990655
      },
      {
        "station": "Vibe Neerabup",
        "brand": "Vibe",
        "address": "1 Pinnacle Dr",
        "suburb": "Neerabup",
        "price": 183.3,
        "lat": -31.686965,
        "lng": 115.783501
      },
      {
        "station": "United Pinjarra Truck Stop",
        "brand": "United",
        "address": "1602 Pinjarra Rd",
        "suburb": "Pinjarra",
        "price": 183.5,
        "lat": -32.610785,
        "lng": 115.848041
      },
      {
        "station": "United Anketell",
        "brand": "United",
        "address": "5 Albina Ave",
        "suburb": "Anketell",
        "price": 183.5,
        "lat": -32.211351,
        "lng": 115.855637
      },
      {
        "station": "United Anketell South",
        "brand": "United",
        "address": "805 Thomas Rd",
        "suburb": "Anketell",
        "price": 183.5,
        "lat": -32.227802,
        "lng": 115.8558758
      },
      {
        "station": "X Convenience Alkimos",
        "brand": "X Convenience",
        "address": "58 Montana Cres",
        "suburb": "Alkimos",
        "price": 183.5,
        "lat": -31.621433,
        "lng": 115.688754
      },
      {
        "station": "Vibe Baldivis",
        "brand": "Vibe",
        "address": "120 Kerosene Lane",
        "suburb": "Baldivis",
        "price": 183.7,
        "lat": -32.29762,
        "lng": 115.80712
      },
      {
        "station": "Vibe Spearwood",
        "brand": "Vibe",
        "address": "333 Rockingham Rd",
        "suburb": "Spearwood",
        "price": 183.7,
        "lat": -32.105033,
        "lng": 115.782419
      },
      {
        "station": "Vibe Hamilton Hill",
        "brand": "Vibe",
        "address": "114 Rockingham Rd",
        "suburb": "Hamilton Hill",
        "price": 183.7,
        "lat": -32.086143,
        "lng": 115.777233
      },
      {
        "station": "Vibe Bedford",
        "brand": "Vibe",
        "address": "168 Walter Rd West",
        "suburb": "Bedford",
        "price": 183.7,
        "lat": -31.9,
        "lng": 115.889257
      },
      {
        "station": "Vibe Port Kennedy",
        "brand": "Vibe",
        "address": "35 Blackburn Dr",
        "suburb": "Port Kennedy",
        "price": 183.7,
        "lat": -32.371578,
        "lng": 115.762171
      },
      {
        "station": "Vibe Piara Waters",
        "brand": "Vibe",
        "address": "386 Nicholson Rd",
        "suburb": "Piara Waters",
        "price": 183.7,
        "lat": -32.146852,
        "lng": 115.922099
      },
      {
        "station": "Vibe Kwinana OPT",
        "brand": "Vibe",
        "address": "Cnr Mandurah Rd & Beach St",
        "suburb": "Kwinana Beach",
        "price": 183.7,
        "lat": -32.245503,
        "lng": 115.78259
      },
      {
        "station": "Vibe Bullsbrook",
        "brand": "Vibe",
        "address": "2533 Great Northern Hwy",
        "suburb": "Bullsbrook",
        "price": 183.7,
        "lat": -31.671935,
        "lng": 116.031427
      },
      {
        "station": "Vibe Bullsbrook Northlink",
        "brand": "Vibe",
        "address": "1769 Neaves Rd",
        "suburb": "Bullsbrook",
        "price": 183.7,
        "lat": -31.654313,
        "lng": 115.974255
      },
      {
        "station": "BP Connect Ascot (WA)",
        "brand": "BP",
        "address": "210 Great Eastern Hwy",
        "suburb": "Ascot",
        "price": 183.9,
        "lat": -31.940482,
        "lng": 115.927498
      },
      {
        "station": "BP 2go Morrison Road",
        "brand": "BP",
        "address": "228 Morrison Rd",
        "suburb": "Midvale",
        "price": 183.9,
        "lat": -31.886395,
        "lng": 116.030977
      },
      {
        "station": "BP Westgate",
        "brand": "BP",
        "address": "85 Queen Victoria St",
        "suburb": "Fremantle",
        "price": 183.9,
        "lat": -32.045365,
        "lng": 115.753085
      },
      {
        "station": "BP Connect Kwinana Hub",
        "brand": "BP",
        "address": "4 Chisham Ave",
        "suburb": "Kwinana Town Centre",
        "price": 183.9,
        "lat": -32.244379,
        "lng": 115.81264
      },
      {
        "station": "BP Connect Wellington Rd",
        "brand": "BP",
        "address": "261 Walter Rd West",
        "suburb": "Morley",
        "price": 183.9,
        "lat": -31.894607,
        "lng": 115.896666
      },
      {
        "station": "BP 2go Noranda",
        "brand": "BP",
        "address": "40 Benara Rd",
        "suburb": "Noranda",
        "price": 183.9,
        "lat": -31.875859,
        "lng": 115.894223
      },
      {
        "station": "BP Connect North Perth",
        "brand": "BP",
        "address": "349 Charles St",
        "suburb": "North Perth",
        "price": 183.9,
        "lat": -31.926673,
        "lng": 115.851901
      },
      {
        "station": "BP 2go Cannington",
        "brand": "BP",
        "address": "1443 Albany Hwy",
        "suburb": "Cannington",
        "price": 183.9,
        "lat": -32.025805,
        "lng": 115.941398
      },
      {
        "station": "BP Baldivis Northbound Travel Centre",
        "brand": "BP",
        "address": "Lot 191 Paparone Rd",
        "suburb": "Baldivis",
        "price": 183.9,
        "lat": -32.309137,
        "lng": 115.830397
      },
      {
        "station": "BP Baldivis Southbound Travel Centre",
        "brand": "BP",
        "address": "Lot 192 Leary Rd",
        "suburb": "Baldivis",
        "price": 183.9,
        "lat": -32.309281,
        "lng": 115.83277
      },
      {
        "station": "BP Naval Base",
        "brand": "BP",
        "address": "1351 Rockingham Rd",
        "suburb": "Naval Base",
        "price": 183.9,
        "lat": -32.199892,
        "lng": 115.781843
      },
      {
        "station": "BP Jindalee",
        "brand": "BP",
        "address": "2 Abello Bvd",
        "suburb": "Jindalee",
        "price": 183.9,
        "lat": -31.636611,
        "lng": 115.689599
      },
      {
        "station": "BP Embleton",
        "brand": "BP",
        "address": "484 Walter Rd East",
        "suburb": "Embleton",
        "price": 183.9,
        "lat": -31.8951,
        "lng": 115.923206
      },
      {
        "station": "BP Canning Vale",
        "brand": "BP",
        "address": "1 Wilfred Rd",
        "suburb": "Canning Vale",
        "price": 183.9,
        "lat": -32.082253,
        "lng": 115.909084
      },
      {
        "station": "BP Thornlie",
        "brand": "BP",
        "address": "459 Nicholson Rd",
        "suburb": "Canning Vale",
        "price": 183.9,
        "lat": -32.063416,
        "lng": 115.936309
      },
      {
        "station": "OMG Metro Yangebup",
        "brand": "OMG Metro",
        "address": "109 Barrington St",
        "suburb": "Yangebup",
        "price": 184.5,
        "lat": -32.116891,
        "lng": 115.795446
      },
      {
        "station": "United Perth Airport Truck Stop",
        "brand": "United",
        "address": "8 Paltridge Rd",
        "suburb": "Perth Airport",
        "price": 184.5,
        "lat": -31.956366,
        "lng": 115.969749
      },
      {
        "station": "Solo Morley",
        "brand": "Solo",
        "address": "298 Benara Rd",
        "suburb": "Morley",
        "price": 184.5,
        "lat": -31.875866,
        "lng": 115.925309
      },
      {
        "station": "Vibe Nollamara",
        "brand": "Vibe",
        "address": "66 Sylvia St",
        "suburb": "Nollamara",
        "price": 184.7,
        "lat": -31.880514,
        "lng": 115.840339
      },
      {
        "station": "Vibe Osborne Park",
        "brand": "Vibe",
        "address": "7 Hutton St",
        "suburb": "Osborne Park",
        "price": 184.7,
        "lat": -31.90631,
        "lng": 115.813744
      },
      {
        "station": "Atlas Fuel Caversham",
        "brand": "Atlas",
        "address": "40 Bennett St",
        "suburb": "Caversham",
        "price": 184.8,
        "lat": -31.8719994,
        "lng": 115.9599162
      },
      {
        "station": "Astron Neerabup",
        "brand": "Astron",
        "address": "2038 Wanneroo Rd",
        "suburb": "Neerabup",
        "price": 184.9,
        "lat": -31.672434,
        "lng": 115.743141
      },
      {
        "station": "United South Lake",
        "brand": "United",
        "address": "49 Berrigan Dr",
        "suburb": "South Lake",
        "price": 184.9,
        "lat": -32.111481,
        "lng": 115.838833
      },
      {
        "station": "United Tapping",
        "brand": "United",
        "address": "1369 Wanneroo Rd",
        "suburb": "Wanneroo",
        "price": 184.9,
        "lat": -31.719744,
        "lng": 115.783408
      },
      {
        "station": "Atlas Fuel Wanneroo",
        "brand": "Atlas",
        "address": "951 Wanneroo Rd",
        "suburb": "Wanneroo",
        "price": 184.9,
        "lat": -31.752615,
        "lng": 115.803432
      },
      {
        "station": "Vibe Charles St",
        "brand": "Vibe",
        "address": "427 Charles St",
        "suburb": "North Perth",
        "price": 185.3,
        "lat": -31.922312,
        "lng": 115.850264
      },
      {
        "station": "Liberty Cataby",
        "brand": "Liberty",
        "address": "10805 Brand Hwy",
        "suburb": "Cataby",
        "price": 185.5,
        "lat": -30.735706,
        "lng": 115.539091
      },
      {
        "station": "Vibe Kwinana Town Centre",
        "brand": "Vibe",
        "address": "6 Chisham Ave",
        "suburb": "Kwinana Town Centre",
        "price": 185.7,
        "lat": -32.244599,
        "lng": 115.815592
      },
      {
        "station": "Vibe Jandakot",
        "brand": "Vibe",
        "address": "630 Karel Ave",
        "suburb": "Jandakot",
        "price": 185.7,
        "lat": -32.090758,
        "lng": 115.868846
      },
      {
        "station": "Vibe Kalamunda",
        "brand": "Vibe",
        "address": "7 Mead St",
        "suburb": "Kalamunda",
        "price": 185.7,
        "lat": -31.97362,
        "lng": 116.059448
      },
      {
        "station": "United Armadale",
        "brand": "United",
        "address": "178 South Western Hwy",
        "suburb": "Armadale",
        "price": 185.9,
        "lat": -32.161492,
        "lng": 116.0176
      },
      {
        "station": "United Hamilton Hill",
        "brand": "United",
        "address": "9 Winterfold Rd",
        "suburb": "Hamilton Hill",
        "price": 185.9,
        "lat": -32.074926,
        "lng": 115.780931
      },
      {
        "station": "United Lexia Truck Stop",
        "brand": "United",
        "address": "779 Gnangara Rd",
        "suburb": "Lexia",
        "price": 185.9,
        "lat": -31.795189,
        "lng": 115.899559
      },
      {
        "station": "United Osborne Park",
        "brand": "United",
        "address": "479 Scarborough Beach Rd",
        "suburb": "Osborne Park",
        "price": 185.9,
        "lat": -31.904837,
        "lng": 115.80609
      },
      {
        "station": "United Ellenbrook",
        "brand": "United",
        "address": "3 Locke Lane",
        "suburb": "Ellenbrook",
        "price": 185.9,
        "lat": -31.77852,
        "lng": 115.96699
      },
      {
        "station": "United Byford",
        "brand": "United",
        "address": "801-803 South Western Hwy",
        "suburb": "Byford",
        "price": 185.9,
        "lat": -32.2154436,
        "lng": 116.0080304
      },
      {
        "station": "Ampol Foodary Lakelands",
        "brand": "Ampol",
        "address": "Lot 50 Mandurah Rd",
        "suburb": "Meadow Springs",
        "price": 185.9,
        "lat": -32.479203,
        "lng": 115.757774
      },
      {
        "station": "Ampol Foodary Forrest Highway North",
        "brand": "Ampol",
        "address": "Lot 602 Forrest Hwy",
        "suburb": "West Pinjarra",
        "price": 185.9,
        "lat": -32.685,
        "lng": 115.776
      },
      {
        "station": "Ampol Foodary Cockburn Central",
        "brand": "Ampol",
        "address": "875 Beeliar Dr",
        "suburb": "Jandakot",
        "price": 185.9,
        "lat": -32.126786,
        "lng": 115.862138
      },
      {
        "station": "Ampol Foodary Forrest Highway South",
        "brand": "Ampol",
        "address": "Lot 601 Forrest Hwy",
        "suburb": "West Pinjarra",
        "price": 185.9,
        "lat": -32.686,
        "lng": 115.778
      },
      {
        "station": "Ampol Foodary Ascot",
        "brand": "Ampol",
        "address": "204 Great Eastern Hwy",
        "suburb": "Ascot",
        "price": 185.9,
        "lat": -31.94098,
        "lng": 115.926337
      },
      {
        "station": "Ampol Foodary Malaga",
        "brand": "Ampol",
        "address": "1 Capital Rd",
        "suburb": "Malaga",
        "price": 185.9,
        "lat": -31.848235,
        "lng": 115.878484
      },
      {
        "station": "Ampol Foodary Karrinyup",
        "brand": "Ampol",
        "address": "490 Karrinyup Rd",
        "suburb": "Gwelup",
        "price": 185.9,
        "lat": -31.882078,
        "lng": 115.796245
      },
      {
        "station": "Ampol Foodary Ashby",
        "brand": "Ampol",
        "address": "2 Hollosy Way",
        "suburb": "Ashby",
        "price": 185.9,
        "lat": -31.73256,
        "lng": 115.80416
      },
      {
        "station": "Ampol Foodary Stratton",
        "brand": "Ampol",
        "address": "240 Toodyay Rd",
        "suburb": "Stratton",
        "price": 185.9,
        "lat": -31.865605,
        "lng": 116.032828
      },
      {
        "station": "Ampol Foodary East Fremantle",
        "brand": "Ampol",
        "address": "176 Canning Hwy",
        "suburb": "East Fremantle",
        "price": 185.9,
        "lat": -32.040657,
        "lng": 115.766241
      },
      {
        "station": "Ampol Foodary Yangebup",
        "brand": "Ampol",
        "address": "289 Beeliar Dr",
        "suburb": "Yangebup",
        "price": 185.9,
        "lat": -32.127568,
        "lng": 115.799158
      },
      {
        "station": "Ampol Foodary Nedlands",
        "brand": "Ampol",
        "address": "7 Broadway",
        "suburb": "Nedlands",
        "price": 185.9,
        "lat": -31.97762,
        "lng": 115.813656
      },
      {
        "station": "Ampol Foodary Belmont",
        "brand": "Ampol",
        "address": "303 Great Eastern Hwy",
        "suburb": "Belmont",
        "price": 185.9,
        "lat": -31.937734,
        "lng": 115.933447
      },
      {
        "station": "Ampol Foodary Glendalough",
        "brand": "Ampol",
        "address": "2 Jon Sanders Dr",
        "suburb": "Glendalough",
        "price": 185.9,
        "lat": -31.922426,
        "lng": 115.819754
      },
      {
        "station": "Ampol Foodary Mosman Park",
        "brand": "Ampol",
        "address": "676 Stirling Hwy",
        "suburb": "Mosman Park",
        "price": 185.9,
        "lat": -32.011969,
        "lng": 115.755567
      },
      {
        "station": "Ampol Foodary Baldivis",
        "brand": "Ampol",
        "address": "614 Baldivis Rd",
        "suburb": "Baldivis",
        "price": 185.9,
        "lat": -32.330641,
        "lng": 115.820995
      },
      {
        "station": "Ampol Foodary Melville",
        "brand": "Ampol",
        "address": "585 Canning Hwy",
        "suburb": "Alfred Cove",
        "price": 185.9,
        "lat": -32.031217,
        "lng": 115.815428
      },
      {
        "station": "Ampol Foodary Gosnells North",
        "brand": "Ampol",
        "address": "2100 Albany Hwy",
        "suburb": "Gosnells",
        "price": 185.9,
        "lat": -32.064148,
        "lng": 115.999536
      },
      {
        "station": "Ampol Foodary Leederville",
        "brand": "Ampol",
        "address": "319 Vincent St",
        "suburb": "Leederville",
        "price": 185.9,
        "lat": -31.936816,
        "lng": 115.840025
      },
      {
        "station": "Ampol Foodary East Perth",
        "brand": "Ampol",
        "address": "157 Lord St",
        "suburb": "Perth",
        "price": 185.9,
        "lat": -31.948689,
        "lng": 115.869567
      },
      {
        "station": "Ampol Foodary Yanchep",
        "brand": "Ampol",
        "address": "1 Morwell St",
        "suburb": "Yanchep",
        "price": 185.9,
        "lat": -31.552063,
        "lng": 115.639632
      },
      {
        "station": "Ampol Foodary Doubleview",
        "brand": "Ampol",
        "address": "365 Scarborough Beach Rd",
        "suburb": "Doubleview",
        "price": 185.9,
        "lat": -31.901328,
        "lng": 115.794203
      },
      {
        "station": "Ampol Foodary Dawesville",
        "brand": "Ampol",
        "address": "191 Bailey Bvd",
        "suburb": "Dawesville",
        "price": 185.9,
        "lat": -32.630805,
        "lng": 115.632323
      },
      {
        "station": "Ampol Foodary North Wanneroo",
        "brand": "Ampol",
        "address": "2624 Wanneroo Rd",
        "suburb": "Nowergup",
        "price": 185.9,
        "lat": -31.625661,
        "lng": 115.718259
      },
      {
        "station": "Ampol Foodary Carine",
        "brand": "Ampol",
        "address": "510 Beach Rd",
        "suburb": "Carine",
        "price": 185.9,
        "lat": -31.846312,
        "lng": 115.795363
      },
      {
        "station": "Ampol Foodary Joondalup",
        "brand": "Ampol",
        "address": "420 Joondalup Dr",
        "suburb": "Joondalup",
        "price": 185.9,
        "lat": -31.741328,
        "lng": 115.764003
      },
      {
        "station": "Ampol Foodary Wangara",
        "brand": "Ampol",
        "address": "79 Buckingham Dr",
        "suburb": "Wangara",
        "price": 185.9,
        "lat": -31.787725,
        "lng": 115.828285
      },
      {
        "station": "Ampol Foodary Greenfields",
        "brand": "Ampol",
        "address": "35 Minilya Pkwy",
        "suburb": "Greenfields",
        "price": 185.9,
        "lat": -32.52975,
        "lng": 115.76414
      },
      {
        "station": "Ampol Foodary North Yunderup",
        "brand": "Ampol",
        "address": "868 Pinjarra Rd",
        "suburb": "Furnissdale",
        "price": 185.9,
        "lat": -32.56712,
        "lng": 115.798359
      },
      {
        "station": "Ampol Foodary Warnbro",
        "brand": "Ampol",
        "address": "2 Bristol St",
        "suburb": "Warnbro",
        "price": 185.9,
        "lat": -32.328853,
        "lng": 115.758691
      },
      {
        "station": "Ampol Foodary Falcon (Miami Beach)",
        "brand": "Ampol",
        "address": "2 Baroy St",
        "suburb": "Falcon",
        "price": 185.9,
        "lat": -32.581154,
        "lng": 115.66148
      },
      {
        "station": "Ampol Foodary Erskine",
        "brand": "Ampol",
        "address": "112 Oakleigh Dr",
        "suburb": "Erskine",
        "price": 185.9,
        "lat": -32.560162,
        "lng": 115.689519
      },
      {
        "station": "Ampol Foodary Secret Harbour",
        "brand": "Ampol",
        "address": "420 Secret Harbour Bvd",
        "suburb": "Secret Harbour",
        "price": 185.9,
        "lat": -32.407011,
        "lng": 115.759423
      },
      {
        "station": "Ampol Foodary Kingsley",
        "brand": "Ampol",
        "address": "86 Kingsley Dr",
        "suburb": "Kingsley",
        "price": 185.9,
        "lat": -31.807038,
        "lng": 115.788723
      },
      {
        "station": "Ampol Foodary Northlands",
        "brand": "Ampol",
        "address": "391 Wanneroo Rd",
        "suburb": "Balcatta",
        "price": 185.9,
        "lat": -31.872542,
        "lng": 115.830984
      },
      {
        "station": "Ampol Foodary Clarkson",
        "brand": "Ampol",
        "address": "7 Ocean Keys Bvd",
        "suburb": "Clarkson",
        "price": 185.9,
        "lat": -31.689369,
        "lng": 115.715226
      },
      {
        "station": "Ampol Foodary Forrestdale",
        "brand": "Ampol",
        "address": "63 Alex Wood Dr",
        "suburb": "Forrestdale",
        "price": 185.9,
        "lat": -32.146558,
        "lng": 115.965549
      },
      {
        "station": "Ampol Foodary Butler",
        "brand": "Ampol",
        "address": "11 Headingly Cr",
        "suburb": "Butler",
        "price": 185.9,
        "lat": -31.65413,
        "lng": 115.71258
      },
      {
        "station": "Ampol Foodary Scarborough",
        "brand": "Ampol",
        "address": "74 Scarborough Beach Rd",
        "suburb": "Scarborough",
        "price": 185.9,
        "lat": -31.893826,
        "lng": 115.764402
      },
      {
        "station": "Ampol Foodary Mt Lawley",
        "brand": "Ampol",
        "address": "810 Beaufort St",
        "suburb": "Mount Lawley",
        "price": 185.9,
        "lat": -31.925179,
        "lng": 115.881917
      },
      {
        "station": "Ampol Foodary Altone Road",
        "brand": "Ampol",
        "address": "159 Altone Rd",
        "suburb": "Beechboro",
        "price": 185.9,
        "lat": -31.871201,
        "lng": 115.945179
      },
      {
        "station": "Ampol Foodary Malaga Drive",
        "brand": "Ampol",
        "address": "76 Malaga Dr",
        "suburb": "Malaga",
        "price": 185.9,
        "lat": -31.863189,
        "lng": 115.893921
      },
      {
        "station": "Ampol Foodary Kewdale",
        "brand": "Ampol",
        "address": "2 Fenton St",
        "suburb": "Kewdale",
        "price": 185.9,
        "lat": -31.98365,
        "lng": 115.955901
      },
      {
        "station": "Ampol Foodary Bentley",
        "brand": "Ampol",
        "address": "91-93 Manning Rd",
        "suburb": "Bentley",
        "price": 185.9,
        "lat": -32.012142,
        "lng": 115.914131
      },
      {
        "station": "Ampol Foodary Subiaco",
        "brand": "Ampol",
        "address": "194 Rokeby Rd",
        "suburb": "Subiaco",
        "price": 185.9,
        "lat": -31.950616,
        "lng": 115.824234
      },
      {
        "station": "Ampol Foodary Gosnells",
        "brand": "Ampol",
        "address": "158 Corfield St",
        "suburb": "Gosnells",
        "price": 185.9,
        "lat": -32.079794,
        "lng": 115.988117
      },
      {
        "station": "Ampol Foodary Rivervale",
        "brand": "Ampol",
        "address": "111 Great Eastern Hwy",
        "suburb": "Rivervale",
        "price": 185.9,
        "lat": -31.953623,
        "lng": 115.913619
      },
      {
        "station": "Ampol Foodary Cannington",
        "brand": "Ampol",
        "address": "1346 Albany Hwy",
        "suburb": "Cannington",
        "price": 185.9,
        "lat": -32.017556,
        "lng": 115.934873
      },
      {
        "station": "Ampol Welshpool Diesel Stop",
        "brand": "Ampol",
        "address": "119 Kurnall Rd",
        "suburb": "Welshpool",
        "price": 185.9,
        "lat": -31.990084,
        "lng": 115.962119
      },
      {
        "station": "Ampol Foodary Byford",
        "brand": "Ampol",
        "address": "Lot 22 South Western Hwy",
        "suburb": "Byford",
        "price": 185.9,
        "lat": -32.226368,
        "lng": 116.008
      },
      {
        "station": "Ampol Foodary High Wycombe",
        "brand": "Ampol",
        "address": "967-969 Abernethy Rd",
        "suburb": "High Wycombe",
        "price": 185.9,
        "lat": -31.951585,
        "lng": 115.987387
      },
      {
        "station": "Ampol Foodary Applecross",
        "brand": "Ampol",
        "address": "918 Canning Hwy",
        "suburb": "Applecross",
        "price": 185.9,
        "lat": -32.01154,
        "lng": 115.850201
      },
      {
        "station": "Ampol Foodary Thornlie Square",
        "brand": "Ampol",
        "address": "316 Spencer Rd",
        "suburb": "Thornlie",
        "price": 185.9,
        "lat": -32.055755,
        "lng": 115.96194
      },
      {
        "station": "Ampol Foodary Willetton",
        "brand": "Ampol",
        "address": "169 High Rd",
        "suburb": "Willetton",
        "price": 185.9,
        "lat": -32.039109,
        "lng": 115.88406
      },
      {
        "station": "Ampol Foodary Murdoch",
        "brand": "Ampol",
        "address": "10 Robson Way",
        "suburb": "Murdoch",
        "price": 185.9,
        "lat": -32.063419,
        "lng": 115.835712
      },
      {
        "station": "Ampol Foodary Midvale",
        "brand": "Ampol",
        "address": "371 Great Eastern Hwy",
        "suburb": "Midvale",
        "price": 185.9,
        "lat": -31.894607,
        "lng": 116.031005
      },
      {
        "station": "Ampol Foodary Rockingham",
        "brand": "Ampol",
        "address": "29 Dixon Rd",
        "suburb": "Rockingham",
        "price": 185.9,
        "lat": -32.2769,
        "lng": 115.749819
      },
      {
        "station": "Ampol Foodary Livingston",
        "brand": "Ampol",
        "address": "110 Ranford Rd",
        "suburb": "Canning Vale",
        "price": 185.9,
        "lat": -32.087082,
        "lng": 115.916536
      },
      {
        "station": "Ampol Foodary Bannister Road",
        "brand": "Ampol",
        "address": "60 Bannister Rd",
        "suburb": "Canning Vale",
        "price": 185.9,
        "lat": -32.06343,
        "lng": 115.926402
      },
      {
        "station": "Ampol Foodary O'Connor",
        "brand": "Ampol",
        "address": "309 Stock Rd",
        "suburb": "O'Connor",
        "price": 185.9,
        "lat": -32.05517,
        "lng": 115.793146
      },
      {
        "station": "Ampol Foodary South Lake",
        "brand": "Ampol",
        "address": "2 Omeo St",
        "suburb": "South Lake",
        "price": 185.9,
        "lat": -32.108271,
        "lng": 115.829221
      },
      {
        "station": "Ampol Foodary Kwinana",
        "brand": "Ampol",
        "address": "Cnr Mandurah Rd & Wellard Rd",
        "suburb": "Kwinana Beach",
        "price": 185.9,
        "lat": -32.248836,
        "lng": 115.78268
      },
      {
        "station": "Ampol Bibra Lake Diesel Stop",
        "brand": "Ampol",
        "address": "5 Cocos Dr",
        "suburb": "Bibra Lake",
        "price": 185.9,
        "lat": -32.1094,
        "lng": 115.8097
      },
      {
        "station": "EG Ampol Banksia Grove",
        "brand": "EG Ampol",
        "address": "133 Ghost Gum Bvd",
        "suburb": "Banksia Grove",
        "price": 185.9,
        "lat": -31.70446,
        "lng": 115.803863
      },
      {
        "station": "EG Ampol Osborne Park",
        "brand": "EG Ampol",
        "address": "401 Scarborough Beach Rd",
        "suburb": "Osborne Park",
        "price": 185.9,
        "lat": -31.91058,
        "lng": 115.81401
      },
      {
        "station": "EG Ampol Morley Galleria",
        "brand": "EG Ampol",
        "address": "60 Russell St",
        "suburb": "Morley",
        "price": 185.9,
        "lat": -31.896262,
        "lng": 115.895092
      },
      {
        "station": "EG Ampol Canning Vale",
        "brand": "EG Ampol",
        "address": "15 Sarah Cl",
        "suburb": "Canning Vale",
        "price": 185.9,
        "lat": -32.072873,
        "lng": 115.925469
      },
      {
        "station": "EG Ampol Ballajura",
        "brand": "EG Ampol",
        "address": "5 Hamelin Dr",
        "suburb": "Ballajura",
        "price": 185.9,
        "lat": -31.847444,
        "lng": 115.906385
      },
      {
        "station": "EG Ampol South Lake",
        "brand": "EG Ampol",
        "address": "752 North Lake Rd",
        "suburb": "South Lake",
        "price": 185.9,
        "lat": -32.115172,
        "lng": 115.837032
      },
      {
        "station": "EG Ampol South Fremantle",
        "brand": "EG Ampol",
        "address": "219 Hampton Rd",
        "suburb": "South Fremantle",
        "price": 185.9,
        "lat": -32.073721,
        "lng": 115.759177
      },
      {
        "station": "EG Ampol Port Kennedy",
        "brand": "EG Ampol",
        "address": "12 Saltaire Way",
        "suburb": "Port Kennedy",
        "price": 185.9,
        "lat": -32.373781,
        "lng": 115.75592
      },
      {
        "station": "EG Ampol Mandurah",
        "brand": "EG Ampol",
        "address": "10-12 Magenta Tce",
        "suburb": "Mandurah",
        "price": 185.9,
        "lat": -32.509613,
        "lng": 115.7409
      },
      {
        "station": "EG Ampol Mandurah Forum",
        "brand": "EG Ampol",
        "address": "330 Pinjarra Rd",
        "suburb": "Mandurah",
        "price": 185.9,
        "lat": -32.536347,
        "lng": 115.740481
      },
      {
        "station": "EG Ampol Northam",
        "brand": "EG Ampol",
        "address": "86 Wellington St",
        "suburb": "Northam",
        "price": 185.9,
        "lat": -31.655128,
        "lng": 116.671585
      },
      {
        "station": "Liberty Landsdale",
        "brand": "Liberty",
        "address": "2 Cowle St",
        "suburb": "Landsdale",
        "price": 185.9,
        "lat": -31.802758,
        "lng": 115.837737
      },
      {
        "station": "Caltex Kwinana Truck Stop",
        "brand": "Caltex",
        "address": "4 Ocean St",
        "suburb": "Kwinana Beach",
        "price": 185.9,
        "lat": -32.247525,
        "lng": 115.773262
      },
      {
        "station": "Caltex Maddington Truck Stop",
        "brand": "Caltex",
        "address": "18 Orchard Rd",
        "suburb": "Maddington",
        "price": 185.9,
        "lat": -32.035207,
        "lng": 115.999195
      },
      {
        "station": "Caltex Edgewater",
        "brand": "Caltex",
        "address": "2 The Gateway",
        "suburb": "Edgewater",
        "price": 185.9,
        "lat": -31.763449,
        "lng": 115.773396
      },
      {
        "station": "UGO Mundaring",
        "brand": "UGO",
        "address": "5895 Great Eastern Hwy",
        "suburb": "Mundaring",
        "price": 185.9,
        "lat": -31.900609,
        "lng": 116.151983
      },
      {
        "station": "Solo Riverton",
        "brand": "Solo",
        "address": "268 High Rd",
        "suburb": "Riverton",
        "price": 185.9,
        "lat": -32.038363,
        "lng": 115.896754
      },
      {
        "station": "X Convenience Erskine",
        "brand": "X Convenience",
        "address": "2 Wattleglen Ave",
        "suburb": "Erskine",
        "price": 186.5,
        "lat": -32.564987,
        "lng": 115.682057
      },
      {
        "station": "OMG Metro Ocean Reef",
        "brand": "OMG Metro",
        "address": "82 Marina Bvd",
        "suburb": "Ocean Reef",
        "price": 186.7,
        "lat": -31.765279,
        "lng": 115.741009
      },
      {
        "station": "Vibe Mandurah",
        "brand": "Vibe",
        "address": "2 Rafferty Rd",
        "suburb": "Mandurah",
        "price": 186.7,
        "lat": -32.517315,
        "lng": 115.743891
      },
      {
        "station": "BP Applecross",
        "brand": "BP",
        "address": "848 Canning Hwy",
        "suburb": "Applecross",
        "price": 186.9,
        "lat": -32.01507,
        "lng": 115.84318
      },
      {
        "station": "BP Maida Vale",
        "brand": "BP",
        "address": "269 Kalamunda Rd",
        "suburb": "Maida Vale",
        "price": 186.9,
        "lat": -31.953759,
        "lng": 116.024102
      },
      {
        "station": "BP 2go Silver Sands",
        "brand": "BP",
        "address": "183-187 Mandurah Tce",
        "suburb": "Mandurah",
        "price": 186.9,
        "lat": -32.519882,
        "lng": 115.731281
      },
      {
        "station": "BP Huntingdale",
        "brand": "BP",
        "address": "68 Warton Rd",
        "suburb": "Huntingdale",
        "price": 186.9,
        "lat": -32.071421,
        "lng": 115.966472
      },
      {
        "station": "BP Nookenburra",
        "brand": "BP",
        "address": "386 Scarborough Beach Rd",
        "suburb": "Innaloo",
        "price": 186.9,
        "lat": -31.902714,
        "lng": 115.799177
      },
      {
        "station": "BP Kardinya",
        "brand": "BP",
        "address": "88 Gilbertson Rd",
        "suburb": "Kardinya",
        "price": 186.9,
        "lat": -32.068991,
        "lng": 115.819985
      },
      {
        "station": "BP Kewdale",
        "brand": "BP",
        "address": "549 Abernethy Rd",
        "suburb": "Kewdale",
        "price": 186.9,
        "lat": -31.981726,
        "lng": 115.975223
      },
      {
        "station": "BP Connect Main Street",
        "brand": "BP",
        "address": "218 Main St",
        "suburb": "Osborne Park",
        "price": 186.9,
        "lat": -31.896277,
        "lng": 115.82855
      },
      {
        "station": "BP Connect Padbury",
        "brand": "BP",
        "address": "2 Warburton Ave",
        "suburb": "Padbury",
        "price": 186.9,
        "lat": -31.813708,
        "lng": 115.75932
      },
      {
        "station": "BP Connect Riverton",
        "brand": "BP",
        "address": "339 High Rd",
        "suburb": "Riverton",
        "price": 186.9,
        "lat": -32.038908,
        "lng": 115.904355
      },
      {
        "station": "BP Connect Rockingham Park",
        "brand": "BP",
        "address": "2 Chalgrove Ave",
        "suburb": "Rockingham",
        "price": 186.9,
        "lat": -32.289729,
        "lng": 115.741484
      },
      {
        "station": "BP Connect Palm Springs",
        "brand": "BP",
        "address": "214 Warnbro Sound Ave",
        "suburb": "Warnbro",
        "price": 186.9,
        "lat": -32.348315,
        "lng": 115.761753
      },
      {
        "station": "BP Connect Wembley",
        "brand": "BP",
        "address": "240 Cambridge St",
        "suburb": "Wembley",
        "price": 186.9,
        "lat": -31.940547,
        "lng": 115.820095
      },
      {
        "station": "BP 2go Burrendah",
        "brand": "BP",
        "address": "69 Pinetree Gully Rd",
        "suburb": "Willetton",
        "price": 186.9,
        "lat": -32.058316,
        "lng": 115.882114
      },
      {
        "station": "BP 2go Woodvale",
        "brand": "BP",
        "address": "941 Whitfords Ave",
        "suburb": "Woodvale",
        "price": 186.9,
        "lat": -31.799887,
        "lng": 115.795979
      },
      {
        "station": "BP Connect West Coast",
        "brand": "BP",
        "address": "11 Scarborough Beach Rd",
        "suburb": "Scarborough",
        "price": 186.9,
        "lat": -31.894578,
        "lng": 115.757975
      },
      {
        "station": "BP Sorrento",
        "brand": "BP",
        "address": "128 West Coast Dr",
        "suburb": "Sorrento",
        "price": 186.9,
        "lat": -31.832414,
        "lng": 115.74792
      },
      {
        "station": "BP Connect South Perth",
        "brand": "BP",
        "address": "9 Mends St",
        "suburb": "South Perth",
        "price": 186.9,
        "lat": -31.972713,
        "lng": 115.852043
      },
      {
        "station": "BP Connect Phoenix",
        "brand": "BP",
        "address": "222 Rockingham Rd",
        "suburb": "Spearwood",
        "price": 186.9,
        "lat": -32.093975,
        "lng": 115.783039
      },
      {
        "station": "BP The Lakes Roadhouse",
        "brand": "BP",
        "address": "13724 Great Eastern Hwy",
        "suburb": "The Lakes",
        "price": 186.9,
        "lat": -31.875285,
        "lng": 116.320602
      },
      {
        "station": "BP Halls Head",
        "brand": "BP",
        "address": "2 Guava Way",
        "suburb": "Halls Head",
        "price": 186.9,
        "lat": -32.550541,
        "lng": 115.701354
      },
      {
        "station": "BP Connect Merriwa",
        "brand": "BP",
        "address": "2 Ridgewood Bvd",
        "suburb": "Ridgewood",
        "price": 186.9,
        "lat": -31.670127,
        "lng": 115.726195
      },
      {
        "station": "BP Connect Myaree",
        "brand": "BP",
        "address": "246 Leach Hwy",
        "suburb": "Myaree",
        "price": 186.9,
        "lat": -32.045815,
        "lng": 115.82024
      },
      {
        "station": "BP Rosegarden",
        "brand": "BP",
        "address": "129 Stirling Hwy",
        "suburb": "Nedlands",
        "price": 186.9,
        "lat": -31.979719,
        "lng": 115.798235
      },
      {
        "station": "BP Connect Carlisle",
        "brand": "BP",
        "address": "44 Archer St",
        "suburb": "Carlisle",
        "price": 186.9,
        "lat": -31.972228,
        "lng": 115.918797
      },
      {
        "station": "BP Connect Currambine",
        "brand": "BP",
        "address": "2 Sunlander Dr",
        "suburb": "Currambine",
        "price": 186.9,
        "lat": -31.723736,
        "lng": 115.74642
      },
      {
        "station": "BP Connect Beaumauris",
        "brand": "BP",
        "address": "2 Prendiville Ave",
        "suburb": "Ocean Reef",
        "price": 186.9,
        "lat": -31.752351,
        "lng": 115.74064
      },
      {
        "station": "BP Connect Thomsons Lake",
        "brand": "BP",
        "address": "810 Beeliar Dr",
        "suburb": "Success",
        "price": 186.9,
        "lat": -32.129169,
        "lng": 115.853726
      },
      {
        "station": "BP Connect East Perth",
        "brand": "BP",
        "address": "68-70 Brown St",
        "suburb": "East Perth",
        "price": 186.9,
        "lat": -31.95077,
        "lng": 115.876572
      },
      {
        "station": "BP Welshpool",
        "brand": "BP",
        "address": "1 Ballantyne Rd",
        "suburb": "Kewdale",
        "price": 186.9,
        "lat": -31.986384,
        "lng": 115.936881
      },
      {
        "station": "United Southern River",
        "brand": "United",
        "address": "Lot 101 Terrier Pl",
        "suburb": "Southern River",
        "price": 186.9,
        "lat": -32.121136,
        "lng": 115.954582
      },
      {
        "station": "BP Kenwick",
        "brand": "BP",
        "address": "48 Courtney Pl",
        "suburb": "Wattle Grove",
        "price": 186.9,
        "lat": -32.005588,
        "lng": 115.980565
      },
      {
        "station": "BP Clarkson",
        "brand": "BP",
        "address": "28K Caloundra Rd",
        "suburb": "Clarkson",
        "price": 186.9,
        "lat": -31.693579,
        "lng": 115.724971
      },
      {
        "station": "United Bibra Lake",
        "brand": "United",
        "address": "13 Whyalla Ct",
        "suburb": "Bibra Lake",
        "price": 186.9,
        "lat": -32.093798,
        "lng": 115.802588
      },
      {
        "station": "BP Ellenbrook",
        "brand": "BP",
        "address": "180 The Promenade",
        "suburb": "Ellenbrook",
        "price": 186.9,
        "lat": -31.775436,
        "lng": 115.963073
      },
      {
        "station": "BP South Fremantle",
        "brand": "BP",
        "address": "229B Hampton Rd",
        "suburb": "South Fremantle",
        "price": 186.9,
        "lat": -32.076871,
        "lng": 115.760944
      },
      {
        "station": "BP Malaga",
        "brand": "BP",
        "address": "370 Victoria Rd",
        "suburb": "Malaga",
        "price": 186.9,
        "lat": -31.862067,
        "lng": 115.894445
      },
      {
        "station": "BP Piara Waters",
        "brand": "BP",
        "address": "12 Erade Dr",
        "suburb": "Piara Waters",
        "price": 186.9,
        "lat": -32.116257,
        "lng": 115.915948
      },
      {
        "station": "BP Singleton",
        "brand": "BP",
        "address": "2514 Mandurah Rd",
        "suburb": "Singleton",
        "price": 186.9,
        "lat": -32.447014,
        "lng": 115.763038
      },
      {
        "station": "Petro Fuels Calista",
        "brand": "Liberty",
        "address": "103 Calista Ave",
        "suburb": "Calista",
        "price": 187.5,
        "lat": -32.248776,
        "lng": 115.808019
      },
      {
        "station": "Atlas Fuel Midvale",
        "brand": "Atlas",
        "address": "227 Morrison Rd",
        "suburb": "Midvale",
        "price": 187.7,
        "lat": -31.885583,
        "lng": 116.030335
      },
      {
        "station": "Vibe Byford",
        "brand": "Vibe",
        "address": "868 South Western Hwy",
        "suburb": "Byford",
        "price": 187.7,
        "lat": -32.221206,
        "lng": 116.009206
      },
      {
        "station": "United Hepburn Heights",
        "brand": "United",
        "address": "4 Walter Padbury Bvd",
        "suburb": "Padbury",
        "price": 187.9,
        "lat": -31.81889,
        "lng": 115.774096
      },
      {
        "station": "United Myaree",
        "brand": "United",
        "address": "182 Leach Hwy",
        "suburb": "Myaree",
        "price": 187.9,
        "lat": -32.046212,
        "lng": 115.812611
      },
      {
        "station": "United Northbridge",
        "brand": "United",
        "address": "31 Fitzgerald St",
        "suburb": "Northbridge",
        "price": 187.9,
        "lat": -31.945612,
        "lng": 115.852438
      },
      {
        "station": "United Maddington Truck Stop",
        "brand": "United",
        "address": "13 Stebbing Rd",
        "suburb": "Maddington",
        "price": 187.9,
        "lat": -32.042356,
        "lng": 115.99131
      },
      {
        "station": "OTR Roleystone",
        "brand": "Caltex",
        "address": "770 Brookton Hwy",
        "suburb": "Roleystone",
        "price": 187.9,
        "lat": -32.115893,
        "lng": 116.083267
      },
      {
        "station": "EG Ampol Ellenbrook",
        "brand": "EG Ampol",
        "address": "11 Main St",
        "suburb": "Ellenbrook",
        "price": 187.9,
        "lat": -31.780889,
        "lng": 115.969189
      },
      {
        "station": "EG Ampol Aveley",
        "brand": "EG Ampol",
        "address": "317 Millhouse Rd",
        "suburb": "Aveley",
        "price": 187.9,
        "lat": -31.777467,
        "lng": 115.987368
      },
      {
        "station": "EG Ampol Greenwood",
        "brand": "EG Ampol",
        "address": "37 Canham Way",
        "suburb": "Greenwood",
        "price": 187.9,
        "lat": -31.822072,
        "lng": 115.820539
      },
      {
        "station": "EG Ampol Warnbro",
        "brand": "EG Ampol",
        "address": "202 Warnbro Sound Ave",
        "suburb": "Warnbro",
        "price": 187.9,
        "lat": -32.345819,
        "lng": 115.761444
      },
      {
        "station": "EG Ampol Currambine Marketplace",
        "brand": "EG Ampol",
        "address": "1244 Marmion Ave",
        "suburb": "Currambine",
        "price": 187.9,
        "lat": -31.742211,
        "lng": 115.740365
      },
      {
        "station": "EG Ampol Falcon",
        "brand": "EG Ampol",
        "address": "651 Old Coast Rd",
        "suburb": "Falcon",
        "price": 187.9,
        "lat": -32.584943,
        "lng": 115.660354
      },
      {
        "station": "EG Ampol Alkimos",
        "brand": "EG Ampol",
        "address": "11 Shorehaven Bvd",
        "suburb": "Alkimos",
        "price": 187.9,
        "lat": -31.601902,
        "lng": 115.680898
      },
      {
        "station": "OTR Yangebup",
        "brand": "Caltex",
        "address": "71 Shallcross St",
        "suburb": "Yangebup",
        "price": 187.9,
        "lat": -32.1188832,
        "lng": 115.79473
      },
      {
        "station": "S24 Harvey",
        "brand": "Caltex",
        "address": "77 Uduc Rd",
        "suburb": "Harvey",
        "price": 187.9,
        "lat": -33.080723,
        "lng": 115.895212
      },
      {
        "station": "S24 Balcatta",
        "brand": "Caltex",
        "address": "229 Balcatta Rd",
        "suburb": "Balcatta",
        "price": 187.9,
        "lat": -31.862537,
        "lng": 115.819152
      },
      {
        "station": "S24 Yanchep",
        "brand": "Caltex",
        "address": "1 Ikara Lane",
        "suburb": "Yanchep",
        "price": 187.9,
        "lat": -31.547779,
        "lng": 115.641352
      },
      {
        "station": "S24 Guildford",
        "brand": "Caltex",
        "address": "22 Johnson St",
        "suburb": "Guildford",
        "price": 187.9,
        "lat": -31.901203,
        "lng": 115.969087
      },
      {
        "station": "S24 Sawyers Valley",
        "brand": "Caltex",
        "address": "96 Great Eastern Hwy",
        "suburb": "Sawyers Valley",
        "price": 187.9,
        "lat": -31.903091,
        "lng": 116.207132
      },
      {
        "station": "Shell Reddy Express Scarborough",
        "brand": "Reddy Express",
        "address": "205 West Coast Hwy",
        "suburb": "Scarborough",
        "price": 187.9,
        "lat": -31.892841,
        "lng": 115.757287
      },
      {
        "station": "Shell Reddy Express Kingsley",
        "brand": "Reddy Express",
        "address": "47 Renegade Way",
        "suburb": "Kingsley",
        "price": 187.9,
        "lat": -31.81975,
        "lng": 115.805778
      },
      {
        "station": "Shell Reddy Express Upper Swan Roadhouse",
        "brand": "Reddy Express",
        "address": "1333 Great Northern Hwy",
        "suburb": "Upper Swan",
        "price": 187.9,
        "lat": -31.774597,
        "lng": 116.025849
      },
      {
        "station": "Shell Reddy Express Jolimont",
        "brand": "Reddy Express",
        "address": "6 Jersey St",
        "suburb": "Jolimont",
        "price": 187.9,
        "lat": -31.947273,
        "lng": 115.811941
      },
      {
        "station": "Shell Reddy Express Claremont",
        "brand": "Reddy Express",
        "address": "269 Stirling Hwy",
        "suburb": "Claremont",
        "price": 187.9,
        "lat": -31.982195,
        "lng": 115.78389
      },
      {
        "station": "Shell Reddy Express West Perth",
        "brand": "Reddy Express",
        "address": "30 Thomas St",
        "suburb": "West Perth",
        "price": 187.9,
        "lat": -31.945494,
        "lng": 115.839719
      },
      {
        "station": "Shell Reddy Express Palmyra",
        "brand": "Reddy Express",
        "address": "80 Carrington St",
        "suburb": "Palmyra",
        "price": 187.9,
        "lat": -32.047319,
        "lng": 115.779904
      },
      {
        "station": "Shell Reddy Express Victoria Park",
        "brand": "Reddy Express",
        "address": "66 Kent St",
        "suburb": "East Victoria Park",
        "price": 187.9,
        "lat": -31.985535,
        "lng": 115.896186
      },
      {
        "station": "Shell Reddy Express Langford",
        "brand": "Reddy Express",
        "address": "70 Nicholson Rd",
        "suburb": "Langford",
        "price": 187.9,
        "lat": -32.031879,
        "lng": 115.938841
      },
      {
        "station": "Shell Reddy Express Kewdale",
        "brand": "Reddy Express",
        "address": "518 Abernethy Rd",
        "suburb": "Kewdale",
        "price": 187.9,
        "lat": -31.980262,
        "lng": 115.958507
      },
      {
        "station": "Shell Reddy Express Lakelands",
        "brand": "Reddy Express",
        "address": "49 Banksiadale Gte",
        "suburb": "Lakelands",
        "price": 187.9,
        "lat": -32.46906,
        "lng": 115.759677
      },
      {
        "station": "Shell Reddy Express Mandurah",
        "brand": "Reddy Express",
        "address": "Cnr Pinjarra Rd & Watson Dr",
        "suburb": "Barragup",
        "price": 187.9,
        "lat": -32.551075,
        "lng": 115.778636
      },
      {
        "station": "Shell Reddy Express Halls Head",
        "brand": "Reddy Express",
        "address": "14 Guava Way",
        "suburb": "Halls Head",
        "price": 187.9,
        "lat": -32.550115,
        "lng": 115.70273
      },
      {
        "station": "OTR Maddington",
        "brand": "Shell",
        "address": "1-3 Sampson St",
        "suburb": "Maddington",
        "price": 187.9,
        "lat": -32.049491,
        "lng": 115.981099
      },
      {
        "station": "Shell Reddy Express Warwick",
        "brand": "Reddy Express",
        "address": "274 Erindale Rd",
        "suburb": "Warwick",
        "price": 187.9,
        "lat": -31.844434,
        "lng": 115.812742
      },
      {
        "station": "Shell Reddy Express Duncraig",
        "brand": "Reddy Express",
        "address": "193 Warwick Rd",
        "suburb": "Duncraig",
        "price": 187.9,
        "lat": -31.835583,
        "lng": 115.782828
      },
      {
        "station": "Shell Reddy Express Girrawheen",
        "brand": "Reddy Express",
        "address": "60 Marangaroo Dr",
        "suburb": "Girrawheen",
        "price": 187.9,
        "lat": -31.834601,
        "lng": 115.828903
      },
      {
        "station": "Shell Reddy Express Malaga",
        "brand": "Reddy Express",
        "address": "492 Alexander Dr",
        "suburb": "Malaga",
        "price": 187.9,
        "lat": -31.863512,
        "lng": 115.879279
      },
      {
        "station": "Shell Reddy Express Middle Swan",
        "brand": "Reddy Express",
        "address": "Lot 46 Great Northern Hwy",
        "suburb": "Middle Swan",
        "price": 187.9,
        "lat": -31.874449,
        "lng": 116.011086
      },
      {
        "station": "Shell Reddy Express Wembley",
        "brand": "Reddy Express",
        "address": "337 Cambridge St",
        "suburb": "Wembley",
        "price": 187.9,
        "lat": -31.941023,
        "lng": 115.811858
      },
      {
        "station": "Shell Reddy Express Cloverdale",
        "brand": "Reddy Express",
        "address": "223 Belmont Ave",
        "suburb": "Cloverdale",
        "price": 187.9,
        "lat": -31.965057,
        "lng": 115.933164
      },
      {
        "station": "Shell Reddy Express Maddington",
        "brand": "Reddy Express",
        "address": "117 Burslem Dr",
        "suburb": "Maddington",
        "price": 187.9,
        "lat": -32.055352,
        "lng": 115.979908
      },
      {
        "station": "Shell Reddy Express Willetton",
        "brand": "Reddy Express",
        "address": "239-247 High Rd",
        "suburb": "Willetton",
        "price": 187.9,
        "lat": -32.039109,
        "lng": 115.893756
      },
      {
        "station": "Shell Reddy Express Forrestfield",
        "brand": "Reddy Express",
        "address": "2 Strelitzia Ave",
        "suburb": "Forrestfield",
        "price": 187.9,
        "lat": -31.988699,
        "lng": 116.010746
      },
      {
        "station": "Shell Reddy Express Fremantle",
        "brand": "Reddy Express",
        "address": "101 Hampton Rd",
        "suburb": "Fremantle",
        "price": 187.9,
        "lat": -32.063235,
        "lng": 115.756663
      },
      {
        "station": "Shell Reddy Express Perth",
        "brand": "Reddy Express",
        "address": "480 William St",
        "suburb": "Perth",
        "price": 187.9,
        "lat": -31.940953,
        "lng": 115.863904
      },
      {
        "station": "Shell Reddy Express Brentwood",
        "brand": "Reddy Express",
        "address": "71 Cranford Ave",
        "suburb": "Brentwood",
        "price": 187.9,
        "lat": -32.041448,
        "lng": 115.848868
      },
      {
        "station": "Shell Reddy Express Bicton",
        "brand": "Reddy Express",
        "address": "394 Canning Hwy",
        "suburb": "Bicton",
        "price": 187.9,
        "lat": -32.03413,
        "lng": 115.792776
      },
      {
        "station": "Shell Reddy Express Northam",
        "brand": "Reddy Express",
        "address": "10 Beamish Ave",
        "suburb": "Northam",
        "price": 187.9,
        "lat": -31.657795,
        "lng": 116.669547
      },
      {
        "station": "Shell Reddy Express Wangara",
        "brand": "Reddy Express",
        "address": "1 Niche Pde",
        "suburb": "Wangara",
        "price": 187.9,
        "lat": -31.791963,
        "lng": 115.852478
      },
      {
        "station": "Shell Reddy Express Ocean Reef",
        "brand": "Reddy Express",
        "address": "6 Marina Bvd",
        "suburb": "Ocean Reef",
        "price": 187.9,
        "lat": -31.76744,
        "lng": 115.749421
      },
      {
        "station": "Shell Reddy Express Ellenbrook",
        "brand": "Reddy Express",
        "address": "3 Goodwood Cres",
        "suburb": "Ellenbrook",
        "price": 187.9,
        "lat": -31.775,
        "lng": 115.96
      },
      {
        "station": "Shell Reddy Express Edgewater",
        "brand": "Reddy Express",
        "address": "57 Joondalup Dr",
        "suburb": "Edgewater",
        "price": 187.9,
        "lat": -31.769548,
        "lng": 115.778804
      },
      {
        "station": "Shell Reddy Express Bayswater",
        "brand": "Reddy Express",
        "address": "34 Jackson St",
        "suburb": "Bayswater",
        "price": 187.9,
        "lat": -31.906734,
        "lng": 115.92665
      },
      {
        "station": "Shell Reddy Express Dianella",
        "brand": "Reddy Express",
        "address": "67 Walter Rd West",
        "suburb": "Dianella",
        "price": 187.9,
        "lat": -31.905801,
        "lng": 115.8827
      },
      {
        "station": "Shell Reddy Express Brighton",
        "brand": "Reddy Express",
        "address": "61 Butler Bvd",
        "suburb": "Butler",
        "price": 187.9,
        "lat": -31.638264,
        "lng": 115.69551
      },
      {
        "station": "Shell Reddy Express Mount Pleasant",
        "brand": "Reddy Express",
        "address": "1 The Esplanade",
        "suburb": "Mount Pleasant",
        "price": 187.9,
        "lat": -32.012511,
        "lng": 115.850077
      },
      {
        "station": "OTR Como",
        "brand": "Shell",
        "address": "73 Manning Rd",
        "suburb": "Como",
        "price": 187.9,
        "lat": -32.012091,
        "lng": 115.864427
      },
      {
        "station": "OTR Perth Pier Street",
        "brand": "Shell",
        "address": "17 Brisbane St",
        "suburb": "Perth",
        "price": 187.9,
        "lat": -31.944162,
        "lng": 115.86904
      },
      {
        "station": "Shell Reddy Express Bibra Lake",
        "brand": "Reddy Express",
        "address": "1 Timberyard Way",
        "suburb": "Bibra Lake",
        "price": 187.9,
        "lat": -32.116954,
        "lng": 115.807471
      },
      {
        "station": "Shell Reddy Express Canning Vale",
        "brand": "Reddy Express",
        "address": "280 Bannister Rd",
        "suburb": "Canning Vale",
        "price": 187.9,
        "lat": -32.070349,
        "lng": 115.895596
      },
      {
        "station": "Atlas Fuel Stratton",
        "brand": "Atlas",
        "address": "177 O'Connor Rd",
        "suburb": "Stratton",
        "price": 187.9,
        "lat": -31.869738,
        "lng": 116.034377
      },
      {
        "station": "Shell Reddy Express Mount Lawley",
        "brand": "Reddy Express",
        "address": "253 Walcott St",
        "suburb": "North Perth",
        "price": 187.9,
        "lat": -31.923821,
        "lng": 115.859281
      },
      {
        "station": "Shell Reddy Express Clarkson",
        "brand": "Reddy Express",
        "address": "36 Ocean Keys Bvd",
        "suburb": "Clarkson",
        "price": 187.9,
        "lat": -31.691894,
        "lng": 115.716118
      },
      {
        "station": "Petro Fuels Westminster",
        "brand": "Petro Fuels",
        "address": "436 Wanneroo Rd",
        "suburb": "Westminster",
        "price": 187.9,
        "lat": -31.867713,
        "lng": 115.829807
      },
      {
        "station": "Shell Reddy Express Brookdale",
        "brand": "Reddy Express",
        "address": "1256 Armadale Rd",
        "suburb": "Armadale",
        "price": 187.9,
        "lat": -32.147485,
        "lng": 115.985303
      },
      {
        "station": "Shell Reddy Express Armadale",
        "brand": "Reddy Express",
        "address": "269 South Western Hwy",
        "suburb": "Armadale",
        "price": 187.9,
        "lat": -32.168864,
        "lng": 116.014864
      },
      {
        "station": "Shell Reddy Express Osborne Park",
        "brand": "Reddy Express",
        "address": "11 Roberts St West",
        "suburb": "Osborne Park",
        "price": 187.9,
        "lat": -31.907535,
        "lng": 115.819092
      },
      {
        "station": "Shell Reddy Express Southern River",
        "brand": "Reddy Express",
        "address": "216 Lakey St",
        "suburb": "Southern River",
        "price": 187.9,
        "lat": -32.103521,
        "lng": 115.934721
      },
      {
        "station": "S24 Bull Creek",
        "brand": "Shell",
        "address": "83 Wheatley Dr",
        "suburb": "Bull Creek",
        "price": 187.9,
        "lat": -32.057051,
        "lng": 115.865845
      },
      {
        "station": "Shell Reddy Express Karawara",
        "brand": "Reddy Express",
        "address": "222 Manning Rd",
        "suburb": "Karawara",
        "price": 187.9,
        "lat": -32.011927,
        "lng": 115.884145
      },
      {
        "station": "Shell Reddy Express Mosman Park",
        "brand": "Reddy Express",
        "address": "582 Stirling Hwy",
        "suburb": "Mosman Park",
        "price": 187.9,
        "lat": -32.005184,
        "lng": 115.759304
      },
      {
        "station": "Shell Reddy Express Leeming",
        "brand": "Reddy Express",
        "address": "51 Farrington St",
        "suburb": "Leeming",
        "price": 187.9,
        "lat": -32.079015,
        "lng": 115.858415
      },
      {
        "station": "Shell Reddy Express Banksia Grove",
        "brand": "Reddy Express",
        "address": "1001 Joondalup Dr",
        "suburb": "Banksia Grove",
        "price": 187.9,
        "lat": -31.70653,
        "lng": 115.802679
      },
      {
        "station": "Shell Reddy Express South Perth",
        "brand": "Reddy Express",
        "address": "3 Canning Hwy",
        "suburb": "South Perth",
        "price": 187.9,
        "lat": -31.974773,
        "lng": 115.881635
      },
      {
        "station": "OTR Bunbury",
        "brand": "Shell",
        "address": "92 Blair St",
        "suburb": "Bunbury",
        "price": 187.9,
        "lat": -33.33,
        "lng": 115.641575
      },
      {
        "station": "S24 Crystal Brook (Lesmurdie)",
        "brand": "Shell",
        "address": "7 Welshpool Rd East",
        "suburb": "Lesmurdie",
        "price": 187.9,
        "lat": -32.012254,
        "lng": 116.035305
      },
      {
        "station": "Shell Reddy Express Westfield",
        "brand": "Reddy Express",
        "address": "88 Champion Dr",
        "suburb": "Seville Grove",
        "price": 187.9,
        "lat": -32.130396,
        "lng": 116.000966
      },
      {
        "station": "Shell Reddy Express Kwinana Beach",
        "brand": "Reddy Express",
        "address": "4 Beach St",
        "suburb": "Kwinana Beach",
        "price": 187.9,
        "lat": -32.243693,
        "lng": 115.776587
      },
      {
        "station": "Shell Reddy Express Myaree",
        "brand": "Reddy Express",
        "address": "69 North Lake Rd",
        "suburb": "Myaree",
        "price": 187.9,
        "lat": -32.039649,
        "lng": 115.815283
      },
      {
        "station": "Shell Reddy Express Waikiki",
        "brand": "Reddy Express",
        "address": "1-9 Gnangara Dr",
        "suburb": "Waikiki",
        "price": 187.9,
        "lat": -32.315121,
        "lng": 115.753183
      },
      {
        "station": "Shell Reddy Express Bull Creek",
        "brand": "Reddy Express",
        "address": "44 Benningfield Rd",
        "suburb": "Bull Creek",
        "price": 187.9,
        "lat": -32.063327,
        "lng": 115.857827
      },
      {
        "station": "Shell Reddy Express Casuarina",
        "brand": "Reddy Express",
        "address": "1 Johnson Rd",
        "suburb": "Bertram",
        "price": 187.9,
        "lat": -32.232326,
        "lng": 115.848215
      },
      {
        "station": "S24 Redcliffe",
        "brand": "Shell",
        "address": "419 Great Eastern Hwy",
        "suburb": "Redcliffe",
        "price": 187.9,
        "lat": -31.930469,
        "lng": 115.944728
      },
      {
        "station": "Shell Reddy Express Bentley",
        "brand": "Reddy Express",
        "address": "1128 Albany Hwy",
        "suburb": "Bentley",
        "price": 187.9,
        "lat": -32.000633,
        "lng": 115.918698
      },
      {
        "station": "S24 Forrestfield",
        "brand": "Shell",
        "address": "155 Hale Rd",
        "suburb": "Forrestfield",
        "price": 187.9,
        "lat": -31.990555,
        "lng": 116.000064
      },
      {
        "station": "Shell Reddy Express Beeliar",
        "brand": "Reddy Express",
        "address": "8 Durnin Ave",
        "suburb": "Beeliar",
        "price": 187.9,
        "lat": -32.128112,
        "lng": 115.798736
      },
      {
        "station": "Shell Reddy Express Wanneroo Pearsall",
        "brand": "Reddy Express",
        "address": "621 Wanneroo Rd",
        "suburb": "Wanneroo",
        "price": 187.9,
        "lat": -31.780031,
        "lng": 115.808184
      },
      {
        "station": "Vibe Toodyay Rd",
        "brand": "Vibe",
        "address": "2086 Toodyay Rd",
        "suburb": "Gidgegannup",
        "price": 188.3,
        "lat": -31.794245,
        "lng": 116.193148
      },
      {
        "station": "Petro Fuels Baldivis",
        "brand": "Petro Fuels",
        "address": "909 Mandurah Rd",
        "suburb": "Baldivis",
        "price": 188.3,
        "lat": -32.309663,
        "lng": 115.796699
      },
      {
        "station": "Petro Fuels Seville Grove",
        "brand": "Petro Fuels",
        "address": "537 Lake Rd",
        "suburb": "Seville Grove",
        "price": 188.5,
        "lat": -32.136834,
        "lng": 115.980305
      },
      {
        "station": "Petro Fuels Bassendean",
        "brand": "Petro Fuels",
        "address": "190 Railway Pde",
        "suburb": "Bassendean",
        "price": 188.5,
        "lat": -31.915476,
        "lng": 115.931768
      },
      {
        "station": "Lori's Fuel Supply",
        "brand": "Independent",
        "address": "259 Railway Ave",
        "suburb": "Kelmscott",
        "price": 188.7,
        "lat": -32.135359,
        "lng": 116.009481
      },
      {
        "station": "Vibe Subiaco",
        "brand": "Vibe",
        "address": "123 Thomas St",
        "suburb": "Subiaco",
        "price": 188.7,
        "lat": -31.952307,
        "lng": 115.83115
      },
      {
        "station": "Petro Fuels Swan View",
        "brand": "Petro Fuels",
        "address": "309 Morrison Rd",
        "suburb": "Swan View",
        "price": 188.7,
        "lat": -31.885693,
        "lng": 116.042187
      },
      {
        "station": "Atlas Fuel Sawyers Valley",
        "brand": "Atlas",
        "address": "10895 Great Eastern Hwy",
        "suburb": "Sawyers Valley",
        "price": 188.7,
        "lat": -31.903211,
        "lng": 116.205032
      },
      {
        "station": "Vibe Pinjarra",
        "brand": "Vibe",
        "address": "58 George St",
        "suburb": "Pinjarra",
        "price": 188.9,
        "lat": -32.63094,
        "lng": 115.872555
      },
      {
        "station": "Vibe Upper Swan",
        "brand": "Vibe",
        "address": "1447 Great Northern Hwy",
        "suburb": "Upper Swan",
        "price": 188.9,
        "lat": -31.765846,
        "lng": 116.031763
      },
      {
        "station": "Liberty Cannington",
        "brand": "Liberty",
        "address": "25 Cecil Ave",
        "suburb": "Cannington",
        "price": 189.2,
        "lat": -32.01664,
        "lng": 115.938196
      },
      {
        "station": "Vibe Mt Helena",
        "brand": "Vibe",
        "address": "9 McVicar Pl",
        "suburb": "Mount Helena",
        "price": 189.5,
        "lat": -31.878494,
        "lng": 116.209053
      },
      {
        "station": "Liberty Oyster Harbour",
        "brand": "Liberty",
        "address": "4 Bayonet Head Rd",
        "suburb": "Bayonet Head",
        "price": 189.5,
        "lat": -34.981779,
        "lng": 117.922103
      },
      {
        "station": "Liberty McKail",
        "brand": "Liberty",
        "address": "557 Albany Hwy",
        "suburb": "Mckail",
        "price": 189.5,
        "lat": -34.985495,
        "lng": 117.851724
      },
      {
        "station": "Liberty Pinjarra",
        "brand": "Liberty",
        "address": "Cnr Pinjarra Rd & Carey St",
        "suburb": "Pinjarra",
        "price": 189.5,
        "lat": -32.626282,
        "lng": 115.869595
      },
      {
        "station": "Liberty East Rockingham",
        "brand": "Liberty",
        "address": "115 Dixon Rd",
        "suburb": "East Rockingham",
        "price": 189.5,
        "lat": -32.2766666,
        "lng": 115.773403
      },
      {
        "station": "Liberty Gosnells",
        "brand": "Liberty",
        "address": "2341 Albany Hwy",
        "suburb": "Gosnells",
        "price": 189.5,
        "lat": -32.075216,
        "lng": 116.005816
      },
      {
        "station": "Liberty O'Connor",
        "brand": "Liberty",
        "address": "9 Pritchard St",
        "suburb": "O'Connor",
        "price": 189.5,
        "lat": -32.063065,
        "lng": 115.792017
      },
      {
        "station": "Vibe Bayswater",
        "brand": "Vibe",
        "address": "120 Beechboro Rd South",
        "suburb": "Bayswater",
        "price": 189.7,
        "lat": -31.9046833,
        "lng": 115.9163268
      },
      {
        "station": "Vibe Henderson",
        "brand": "Vibe",
        "address": "Lot 104 Russel Rd",
        "suburb": "Henderson",
        "price": 189.7,
        "lat": -32.146141,
        "lng": 115.779092
      },
      {
        "station": "OMG Metro Maddington",
        "brand": "OMG Metro",
        "address": "134 Westfield St",
        "suburb": "Maddington",
        "price": 189.9,
        "lat": -32.053507,
        "lng": 116.000806
      },
      {
        "station": "BP Balcatta",
        "brand": "BP",
        "address": "53 Erindale Rd",
        "suburb": "Balcatta",
        "price": 189.9,
        "lat": -31.865568,
        "lng": 115.808055
      },
      {
        "station": "BP Ballajura",
        "brand": "BP",
        "address": "2 Illawarra Cres North",
        "suburb": "Ballajura",
        "price": 189.9,
        "lat": -31.826611,
        "lng": 115.877278
      },
      {
        "station": "BP Koondoola",
        "brand": "BP",
        "address": "28 Koondoola Ave",
        "suburb": "Koondoola",
        "price": 189.9,
        "lat": -31.841924,
        "lng": 115.858276
      },
      {
        "station": "BP Beeliar",
        "brand": "BP",
        "address": "701 Beeliar Dr",
        "suburb": "Cockburn Central",
        "price": 189.9,
        "lat": -32.127157,
        "lng": 115.843357
      },
      {
        "station": "BP Bibra Lake",
        "brand": "BP",
        "address": "2 Wellard St",
        "suburb": "Bibra Lake",
        "price": 189.9,
        "lat": -32.103888,
        "lng": 115.804171
      },
      {
        "station": "BP Port Kennedy",
        "brand": "BP",
        "address": "46 Bakewell Dr",
        "suburb": "Port Kennedy",
        "price": 189.9,
        "lat": -32.371178,
        "lng": 115.763127
      },
      {
        "station": "BP Woodbridge",
        "brand": "BP",
        "address": "380 Great Eastern Hwy",
        "suburb": "Woodbridge",
        "price": 189.9,
        "lat": -31.890354,
        "lng": 115.995715
      },
      {
        "station": "BP Forrestdale",
        "brand": "BP",
        "address": "2 Alex Wood Dr",
        "suburb": "Forrestdale",
        "price": 189.9,
        "lat": -32.137312,
        "lng": 115.969456
      },
      {
        "station": "BP East Rockingham",
        "brand": "BP",
        "address": "137 Dixon Rd",
        "suburb": "East Rockingham",
        "price": 189.9,
        "lat": -32.276459,
        "lng": 115.780512
      },
      {
        "station": "Karnup Roadhouse",
        "brand": "BP",
        "address": "2263 Mandurah Rd",
        "suburb": "Karnup",
        "price": 189.9,
        "lat": -32.427429,
        "lng": 115.77467
      },
      {
        "station": "BP Greenwood North",
        "brand": "BP",
        "address": "1 Canham Way",
        "suburb": "Greenwood",
        "price": 189.9,
        "lat": -31.82089,
        "lng": 115.815729
      },
      {
        "station": "Caltex Byford",
        "brand": "Caltex",
        "address": "8 Kardan Bvd",
        "suburb": "Byford",
        "price": 189.9,
        "lat": -32.207484,
        "lng": 115.977648
      },
      {
        "station": "EG Ampol Floreat",
        "brand": "EG Ampol",
        "address": "5 Howtree Pl",
        "suburb": "Floreat",
        "price": 189.9,
        "lat": -31.93672,
        "lng": 115.793911
      },
      {
        "station": "EG Ampol Dianella",
        "brand": "EG Ampol",
        "address": "372 Grand Prom",
        "suburb": "Dianella",
        "price": 189.9,
        "lat": -31.89674,
        "lng": 115.871865
      },
      {
        "station": "EG Ampol Maddington West",
        "brand": "EG Ampol",
        "address": "207 Burslem Dr",
        "suburb": "Maddington",
        "price": 189.9,
        "lat": -32.049324,
        "lng": 115.977502
      },
      {
        "station": "EG Ampol Mirrabooka",
        "brand": "EG Ampol",
        "address": "53 Yirrigan Dr",
        "suburb": "Mirrabooka",
        "price": 189.9,
        "lat": -31.873567,
        "lng": 115.861407
      },
      {
        "station": "EG Ampol Southern River",
        "brand": "EG Ampol",
        "address": "466 Warton Rd",
        "suburb": "Southern River",
        "price": 189.9,
        "lat": -32.096399,
        "lng": 115.935881
      },
      {
        "station": "EG Ampol Whitfords",
        "brand": "EG Ampol",
        "address": "470 Whitfords Ave",
        "suburb": "Hillarys",
        "price": 189.9,
        "lat": -31.796683,
        "lng": 115.745505
      },
      {
        "station": "Caltex Neerabup",
        "brand": "Caltex",
        "address": "2056 Wanneroo Rd",
        "suburb": "Neerabup",
        "price": 189.9,
        "lat": -31.67127,
        "lng": 115.742022
      },
      {
        "station": "EG Ampol Brabham",
        "brand": "EG Ampol",
        "address": "3 Marvel Ent",
        "suburb": "Brabham",
        "price": 189.9,
        "lat": -31.832944,
        "lng": 115.966916
      },
      {
        "station": "Caltex Langford",
        "brand": "Caltex",
        "address": "230-234 Nicholson Rd",
        "suburb": "Langford",
        "price": 189.9,
        "lat": -32.04723,
        "lng": 115.932375
      },
      {
        "station": "Caltex Kelmscott",
        "brand": "Caltex",
        "address": "2907 Albany Hwy",
        "suburb": "Kelmscott",
        "price": 189.9,
        "lat": -32.118708,
        "lng": 116.016589
      },
      {
        "station": "NightOwl BP Armadale",
        "brand": "BP",
        "address": "3249 Albany Hwy",
        "suburb": "Armadale",
        "price": 189.9,
        "lat": -32.148535,
        "lng": 116.020351
      },
      {
        "station": "Atlas Fuel Geraldton",
        "brand": "Atlas",
        "address": "184 North West Coastal Hwy",
        "suburb": "Wonthella",
        "price": 189.9,
        "lat": -28.759596,
        "lng": 114.625109
      },
      {
        "station": "Petro Fuels Karragullen",
        "brand": "Petro Fuels",
        "address": "1287 Brookton Hwy",
        "suburb": "Karragullen",
        "price": 190.3,
        "lat": -32.105085,
        "lng": 116.121421
      },
      {
        "station": "United Albany Central",
        "brand": "United",
        "address": "309 Albany Hwy",
        "suburb": "Mount Melville",
        "price": 191.9,
        "lat": -35.005762,
        "lng": 117.866879
      },
      {
        "station": "Ampol Foodary Bunbury",
        "brand": "Ampol",
        "address": "1 Forrest Ave",
        "suburb": "Bunbury",
        "price": 191.9,
        "lat": -33.336723,
        "lng": 115.641414
      },
      {
        "station": "Caltex Hamilton Hill South",
        "brand": "Caltex",
        "address": "216 Rockingham Rd",
        "suburb": "Hamilton Hill",
        "price": 191.9,
        "lat": -32.093152,
        "lng": 115.783081
      },
      {
        "station": "Caltex Hamilton Hill North",
        "brand": "Caltex",
        "address": "224 Clontarf Rd",
        "suburb": "Hamilton Hill",
        "price": 191.9,
        "lat": -32.075531,
        "lng": 115.779519
      },
      {
        "station": "Caltex Parmelia",
        "brand": "Caltex",
        "address": "60 Meares Ave",
        "suburb": "Kwinana Town Centre",
        "price": 191.9,
        "lat": -32.247336,
        "lng": 115.816983
      },
      {
        "station": "Atlas Fuel Jarrahdale",
        "brand": "Atlas",
        "address": "2 Jarrahdale Rd",
        "suburb": "Jarrahdale",
        "price": 191.9,
        "lat": -32.308753,
        "lng": 116.006734
      },
      {
        "station": "Metro Bassendean",
        "brand": "Metro Petroleum",
        "address": "335 Collier Rd",
        "suburb": "Bassendean",
        "price": 191.9,
        "lat": -31.905283,
        "lng": 115.932367
      },
      {
        "station": "Caltex Naval Base",
        "brand": "Caltex",
        "address": "Cnr Rockingham Rd & Lee Rd",
        "suburb": "Naval Base",
        "price": 191.9,
        "lat": -32.206745,
        "lng": 115.784712
      },
      {
        "station": "Metro Wangara",
        "brand": "Metro Petroleum",
        "address": "79 Gnangara Rd",
        "suburb": "Wangara",
        "price": 191.9,
        "lat": -31.801903,
        "lng": 115.827519
      },
      {
        "station": "Metro Midvale",
        "brand": "Metro Petroleum",
        "address": "83 Farrall Rd",
        "suburb": "Midvale",
        "price": 191.9,
        "lat": -31.885552,
        "lng": 116.032753
      },
      {
        "station": "United Albany Orana",
        "brand": "United",
        "address": "367 Albany Hwy",
        "suburb": "Orana",
        "price": 191.9,
        "lat": -35.001813,
        "lng": 117.863298
      },
      {
        "station": "Windmill Roadhouse",
        "brand": "Liberty",
        "address": "1 Darch St",
        "suburb": "Regans Ford",
        "price": 192.9,
        "lat": -30.983045,
        "lng": 115.702039
      },
      {
        "station": "Ampol Foodary Wonthella",
        "brand": "Ampol",
        "address": "40 North West Coastal Hwy",
        "suburb": "Wonthella",
        "price": 192.9,
        "lat": -28.778125,
        "lng": 114.626588
      },
      {
        "station": "Caltex Midvale",
        "brand": "Caltex",
        "address": "232 Morrison Rd",
        "suburb": "Midvale",
        "price": 192.9,
        "lat": -31.886391,
        "lng": 116.031862
      },
      {
        "station": "Caltex Joondalup",
        "brand": "Caltex",
        "address": "49 Candlewood Bvd",
        "suburb": "Joondalup",
        "price": 192.9,
        "lat": -31.728704,
        "lng": 115.76494
      },
      {
        "station": "Caltex Munster",
        "brand": "Caltex",
        "address": "512 Rockingham Rd",
        "suburb": "Munster",
        "price": 192.9,
        "lat": -32.122463,
        "lng": 115.784194
      },
      {
        "station": "Caltex Madeley",
        "brand": "Caltex",
        "address": "182 Wanneroo Rd",
        "suburb": "Madeley",
        "price": 192.9,
        "lat": -31.817018,
        "lng": 115.821127
      },
      {
        "station": "Caltex Armadale",
        "brand": "Caltex",
        "address": "10 Orchard Ave",
        "suburb": "Armadale",
        "price": 192.9,
        "lat": -32.151032,
        "lng": 116.01409
      },
      {
        "station": "Metro Geraldton",
        "brand": "Metro Petroleum",
        "address": "1 Fortyn Ct",
        "suburb": "Mahomets Flats",
        "price": 192.9,
        "lat": -28.792328,
        "lng": 114.616974
      },
      {
        "station": "Metro Canning Vale",
        "brand": "Metro Petroleum",
        "address": "Lot 322 Ranford Rd",
        "suburb": "Canning Vale",
        "price": 192.9,
        "lat": -32.092476,
        "lng": 115.923934
      },
      {
        "station": "Astron Quinns Rocks",
        "brand": "Astron",
        "address": "121 Quinns Rd",
        "suburb": "Quinns Rocks",
        "price": 193.1,
        "lat": -31.672657,
        "lng": 115.708282
      },
      {
        "station": "Burk Broadwater",
        "brand": "Burk",
        "address": "545 Bussell Hwy",
        "suburb": "Broadwater",
        "price": 193.3,
        "lat": -33.659722,
        "lng": 115.279282
      },
      {
        "station": "Better Choice Tuart Hill",
        "brand": "Better Choice",
        "address": "150 Wanneroo Rd",
        "suburb": "Tuart Hill",
        "price": 193.5,
        "lat": -31.897268,
        "lng": 115.841447
      },
      {
        "station": "Better Choice Como",
        "brand": "Better Choice",
        "address": "25 Preston St",
        "suburb": "Como",
        "price": 193.5,
        "lat": -31.994235,
        "lng": 115.859554
      },
      {
        "station": "Better Choice Edgewater",
        "brand": "Better Choice",
        "address": "21 Edgewater Dr",
        "suburb": "Edgewater",
        "price": 193.5,
        "lat": -31.772036,
        "lng": 115.789182
      },
      {
        "station": "Better Choice Malaga",
        "brand": "Better Choice",
        "address": "3 Carson Rd",
        "suburb": "Malaga",
        "price": 193.5,
        "lat": -31.855136,
        "lng": 115.878229
      },
      {
        "station": "Vibe Placid Ark Roadhouse",
        "brand": "Vibe",
        "address": "6947 South Western Hwy",
        "suburb": "Coolup",
        "price": 193.5,
        "lat": -32.727044,
        "lng": 115.881859
      },
      {
        "station": "Petro Fuels Shoalwater",
        "brand": "Caltex",
        "address": "113-121 Safety Bay Rd",
        "suburb": "Shoalwater",
        "price": 193.5,
        "lat": -32.292358,
        "lng": 115.71055
      },
      {
        "station": "Vibe Siesta Park",
        "brand": "Vibe",
        "address": "367 Caves Rd",
        "suburb": "Kealy",
        "price": 193.7,
        "lat": -33.655538,
        "lng": 115.220151
      },
      {
        "station": "Vibe Bunbury Central",
        "brand": "Vibe",
        "address": "42 Strickland St",
        "suburb": "Bunbury",
        "price": 193.7,
        "lat": -33.336043,
        "lng": 115.646957
      },
      {
        "station": "Vibe Harvey",
        "brand": "Vibe",
        "address": "46 South Western Hwy",
        "suburb": "Harvey",
        "price": 193.7,
        "lat": -33.082471,
        "lng": 115.905481
      },
      {
        "station": "Vibe Bunbury South",
        "brand": "Vibe",
        "address": "302 Blair St",
        "suburb": "South Bunbury",
        "price": 193.7,
        "lat": -33.351866,
        "lng": 115.641941
      },
      {
        "station": "7-Eleven Two Rocks",
        "brand": "7-Eleven",
        "address": "2 Dunraven Rd",
        "suburb": "Two Rocks",
        "price": 193.9,
        "lat": -31.49097,
        "lng": 115.597517
      },
      {
        "station": "7-Eleven Byford South",
        "brand": "7-Eleven",
        "address": "25 Abernethy Rd",
        "suburb": "Byford",
        "price": 193.9,
        "lat": -32.222078,
        "lng": 116.005916
      },
      {
        "station": "7-Eleven Butler",
        "brand": "7-Eleven",
        "address": "270 Butler Bvd",
        "suburb": "Butler",
        "price": 193.9,
        "lat": -31.635358,
        "lng": 115.705554
      },
      {
        "station": "7-Eleven Malaga",
        "brand": "7-Eleven",
        "address": "650 Marshall Rd",
        "suburb": "Malaga",
        "price": 193.9,
        "lat": -31.856778,
        "lng": 115.908098
      },
      {
        "station": "7-Eleven Rockingham",
        "brand": "7-Eleven",
        "address": "129 Dixon Rd",
        "suburb": "East Rockingham",
        "price": 193.9,
        "lat": -32.276643,
        "lng": 115.777477
      },
      {
        "station": "7-Eleven Balga",
        "brand": "7-Eleven",
        "address": "102 Princess Rd",
        "suburb": "Balga",
        "price": 193.9,
        "lat": -31.856494,
        "lng": 115.83739
      },
      {
        "station": "7-Eleven Landsdale",
        "brand": "7-Eleven",
        "address": "8 Mullingar Way",
        "suburb": "Landsdale",
        "price": 193.9,
        "lat": -31.804934,
        "lng": 115.835741
      },
      {
        "station": "7-Eleven Greenfields",
        "brand": "7-Eleven",
        "address": "1 Eaglemont St",
        "suburb": "Greenfields",
        "price": 193.9,
        "lat": -32.520256,
        "lng": 115.753611
      },
      {
        "station": "7-Eleven Malvern Springs",
        "brand": "7-Eleven",
        "address": "324 The Broadway",
        "suburb": "Ellenbrook",
        "price": 193.9,
        "lat": -31.766075,
        "lng": 115.985544
      },
      {
        "station": "7-Eleven Haynes",
        "brand": "7-Eleven",
        "address": "1256 Armadale Rd",
        "suburb": "Armadale",
        "price": 193.9,
        "lat": -32.147485,
        "lng": 115.984399
      },
      {
        "station": "7-Eleven Caversham",
        "brand": "7-Eleven",
        "address": "2131 West Swan Rd",
        "suburb": "Caversham",
        "price": 193.9,
        "lat": -31.875469,
        "lng": 115.974566
      },
      {
        "station": "7-Eleven Middle Swan",
        "brand": "7-Eleven",
        "address": "40-42 Great Northern Hwy",
        "suburb": "Middle Swan",
        "price": 193.9,
        "lat": -31.873671,
        "lng": 116.011586
      },
      {
        "station": "7-Eleven Wanneroo South",
        "brand": "7-Eleven",
        "address": "929-931 Wanneroo Rd",
        "suburb": "Wanneroo",
        "price": 193.9,
        "lat": -31.754313,
        "lng": 115.804474
      },
      {
        "station": "7-Eleven Southern River",
        "brand": "7-Eleven",
        "address": "481 Balfour St",
        "suburb": "Southern River",
        "price": 193.9,
        "lat": -32.107884,
        "lng": 115.939718
      },
      {
        "station": "7-Eleven Bibra Lake",
        "brand": "7-Eleven",
        "address": "35 Port Kembla Dr",
        "suburb": "Bibra Lake",
        "price": 193.9,
        "lat": -32.101411,
        "lng": 115.801664
      },
      {
        "station": "7-Eleven Bassendean",
        "brand": "7-Eleven",
        "address": "302-318 Collier Rd",
        "suburb": "Bassendean",
        "price": 193.9,
        "lat": -31.9063297,
        "lng": 115.9308682
      },
      {
        "station": "7-Eleven Kelmscott Central",
        "brand": "7-Eleven",
        "address": "4 Church St",
        "suburb": "Kelmscott",
        "price": 193.9,
        "lat": -32.118987,
        "lng": 116.017576
      },
      {
        "station": "7-Eleven Success",
        "brand": "7-Eleven",
        "address": "660 Beeliar Dr",
        "suburb": "Success",
        "price": 193.9,
        "lat": -32.126356,
        "lng": 115.839346
      },
      {
        "station": "7-Eleven Harrisdale",
        "brand": "7-Eleven",
        "address": "120 Yellowwood Ave",
        "suburb": "Harrisdale",
        "price": 193.9,
        "lat": -32.125599,
        "lng": 115.92601
      },
      {
        "station": "7-Eleven Mandurah",
        "brand": "7-Eleven",
        "address": "296 Pinjarra Rd",
        "suburb": "Mandurah",
        "price": 193.9,
        "lat": -32.53585,
        "lng": 115.736934
      },
      {
        "station": "7-Eleven Ascot",
        "brand": "7-Eleven",
        "address": "194 Great Eastern Hwy",
        "suburb": "Ascot",
        "price": 193.9,
        "lat": -31.941776,
        "lng": 115.925077
      },
      {
        "station": "7-Eleven Maddington South",
        "brand": "7-Eleven",
        "address": "1969 Albany Hwy",
        "suburb": "Maddington",
        "price": 193.9,
        "lat": -32.055377,
        "lng": 115.9886
      },
      {
        "station": "7-Eleven Kelmscott",
        "brand": "7-Eleven",
        "address": "105 Champion Dr",
        "suburb": "Kelmscott",
        "price": 193.9,
        "lat": -32.128644,
        "lng": 115.999775
      },
      {
        "station": "7-Eleven Forrestdale",
        "brand": "7-Eleven",
        "address": "2 Haydock St",
        "suburb": "Forrestdale",
        "price": 193.9,
        "lat": -32.123564,
        "lng": 115.956257
      },
      {
        "station": "7-Eleven Wattle Grove",
        "brand": "7-Eleven",
        "address": "332 Hale Rd",
        "suburb": "Wattle Grove",
        "price": 193.9,
        "lat": -32.0,
        "lng": 115.985784
      },
      {
        "station": "7-Eleven Cockburn Central",
        "brand": "7-Eleven",
        "address": "814 North Lake Rd",
        "suburb": "Cockburn Central",
        "price": 193.9,
        "lat": -32.120001,
        "lng": 115.846548
      },
      {
        "station": "7-Eleven Queens Park",
        "brand": "7-Eleven",
        "address": "235 Welshpool Rd",
        "suburb": "Queens Park",
        "price": 193.9,
        "lat": -31.997151,
        "lng": 115.946773
      },
      {
        "station": "7-Eleven Morley",
        "brand": "7-Eleven",
        "address": "162 Russell St",
        "suburb": "Morley",
        "price": 193.9,
        "lat": -31.903344,
        "lng": 115.903047
      },
      {
        "station": "7-Eleven Thornlie",
        "brand": "7-Eleven",
        "address": "125 Murdoch Rd",
        "suburb": "Thornlie",
        "price": 193.9,
        "lat": -32.06954,
        "lng": 115.952095
      },
      {
        "station": "7-Eleven Carlisle",
        "brand": "7-Eleven",
        "address": "232 Orrong Rd",
        "suburb": "Carlisle",
        "price": 193.9,
        "lat": -31.971624,
        "lng": 115.918341
      },
      {
        "station": "7-Eleven Balcatta",
        "brand": "7-Eleven",
        "address": "174 Balcatta Rd",
        "suburb": "Balcatta",
        "price": 193.9,
        "lat": -31.860353,
        "lng": 115.80964
      },
      {
        "station": "7-Eleven Greenfields South",
        "brand": "7-Eleven",
        "address": "13 Lakes Rd",
        "suburb": "Greenfields",
        "price": 193.9,
        "lat": -32.537744,
        "lng": 115.757395
      },
      {
        "station": "7-Eleven Gosnells",
        "brand": "7-Eleven",
        "address": "303 Corfield St",
        "suburb": "Gosnells",
        "price": 193.9,
        "lat": -32.089802,
        "lng": 115.998682
      },
      {
        "station": "7-Eleven Joondalup",
        "brand": "7-Eleven",
        "address": "8 Buick Way",
        "suburb": "Joondalup",
        "price": 193.9,
        "lat": -31.753934,
        "lng": 115.765241
      },
      {
        "station": "7-Eleven Rockingham Central",
        "brand": "7-Eleven",
        "address": "2 Sepia Ct",
        "suburb": "Rockingham",
        "price": 193.9,
        "lat": -32.291686,
        "lng": 115.743091
      },
      {
        "station": "7-Eleven Booragoon",
        "brand": "7-Eleven",
        "address": "492 Marmion St",
        "suburb": "Booragoon",
        "price": 193.9,
        "lat": -32.039537,
        "lng": 115.822893
      },
      {
        "station": "7-Eleven Midland",
        "brand": "7-Eleven",
        "address": "8 Clayton St",
        "suburb": "Midland",
        "price": 193.9,
        "lat": -31.89765,
        "lng": 116.01557
      },
      {
        "station": "7-Eleven Banksia Grove",
        "brand": "7-Eleven",
        "address": "1/300 Joseph Banks Bvd",
        "suburb": "Banksia Grove",
        "price": 193.9,
        "lat": -31.703423,
        "lng": 115.804315
      },
      {
        "station": "7-Eleven Stirling",
        "brand": "7-Eleven",
        "address": "377 Wanneroo Rd",
        "suburb": "Balcatta",
        "price": 193.9,
        "lat": -31.8734,
        "lng": 115.828839
      },
      {
        "station": "7-Eleven Brabham",
        "brand": "7-Eleven",
        "address": "3 Marvel Ent",
        "suburb": "Brabham",
        "price": 193.9,
        "lat": -31.83263,
        "lng": 115.968131
      },
      {
        "station": "7-Eleven Bentley",
        "brand": "7-Eleven",
        "address": "1133-1135 Albany Hwy",
        "suburb": "Bentley",
        "price": 193.9,
        "lat": -32.001754,
        "lng": 115.918523
      },
      {
        "station": "7-Eleven Baldivis",
        "brand": "7-Eleven",
        "address": "370 Baldivis Rd",
        "suburb": "Baldivis",
        "price": 193.9,
        "lat": -32.308362,
        "lng": 115.822017
      },
      {
        "station": "7-Eleven Kardinya",
        "brand": "7-Eleven",
        "address": "1 South St",
        "suburb": "Kardinya",
        "price": 193.9,
        "lat": -32.067327,
        "lng": 115.815185
      },
      {
        "station": "Caltex Murdoch",
        "brand": "Caltex",
        "address": "170 Murdoch Dr",
        "suburb": "Murdoch",
        "price": 193.9,
        "lat": -32.079195,
        "lng": 115.842898
      },
      {
        "station": "Caltex Baldivis",
        "brand": "Caltex",
        "address": "67 Ridge Bvd",
        "suburb": "Baldivis",
        "price": 193.9,
        "lat": -32.353665,
        "lng": 115.80765
      },
      {
        "station": "Caltex Dayton",
        "brand": "Caltex",
        "address": "8 Repton St",
        "suburb": "Dayton",
        "price": 193.9,
        "lat": -31.851089,
        "lng": 115.968786
      },
      {
        "station": "Caltex Forrestdale",
        "brand": "Caltex",
        "address": "4 Remisko Dr",
        "suburb": "Forrestdale",
        "price": 193.9,
        "lat": -32.14267,
        "lng": 115.974144
      },
      {
        "station": "Caltex Yokine",
        "brand": "Caltex",
        "address": "398 Hector St",
        "suburb": "Yokine",
        "price": 193.9,
        "lat": -31.904611,
        "lng": 115.849565
      },
      {
        "station": "Caltex Malaga",
        "brand": "Caltex",
        "address": "1896 Beach Rd",
        "suburb": "Malaga",
        "price": 193.9,
        "lat": -31.85295,
        "lng": 115.882059
      },