{
  "updated": "2026-04-08T15:56:59+08:00",
  "fuel_types": {
    "ulp": [
      {
        "station": "Vibe Oakford Truckstop",
        "brand": "Vibe",
        "address": "1780 Thomas Rd",
        "suburb": "Oakford",
        "price": 199.2,
        "lat": -32.209305,
        "lng": 115.952279
      },
      {
        "station": "Vibe Bullsbrook",
        "brand": "Vibe",
        "address": "2533 Great Northern Hwy",
        "suburb": "Bullsbrook",
        "price": 204.7,
        "lat": -31.671935,
        "lng": 116.031427
      },
      {
        "station": "Atlas Fuel Forrestdale",
        "brand": "Atlas",
        "address": "12 Antsey Rd",
        "suburb": "Forrestdale",
        "price": 204.9,
        "lat": -32.147176,
        "lng": 115.937714
      },
      {
        "station": "Vibe Armadale",
        "brand": "Vibe",
        "address": "126 Forrest Rd",
        "suburb": "Armadale",
        "price": 204.9,
        "lat": -32.158168,
        "lng": 116.001834
      },
      {
        "station": "Atlas Fuel Kwinana",
        "brand": "Atlas",
        "address": "1 Mandurah Rd",
        "suburb": "Kwinana Beach",
        "price": 204.9,
        "lat": -32.235848,
        "lng": 115.780215
      },
      {
        "station": "Atlas Fuel Ascot",
        "brand": "Atlas",
        "address": "472 Great Eastern Hwy",
        "suburb": "Ascot",
        "price": 204.9,
        "lat": -31.925213,
        "lng": 115.951987
      },
      {
        "station": "Shell Bullsbrook",
        "brand": "Shell",
        "address": "2539 Great Northern Hwy",
        "suburb": "Bullsbrook",
        "price": 205.0,
        "lat": -31.671536,
        "lng": 116.031446
      },
      {
        "station": "Burk Cannington",
        "brand": "Burk",
        "address": "1510 Albany Hwy",
        "suburb": "Beckenham",
        "price": 205.3,
        "lat": -32.027183,
        "lng": 115.950013
      },
      {
        "station": "Burk Landsdale",
        "brand": "Burk",
        "address": "274 Gnangara Rd",
        "suburb": "Landsdale",
        "price": 205.3,
        "lat": -31.79903,
        "lng": 115.847126
      },
      {
        "station": "Burk Oakford",
        "brand": "Burk",
        "address": "1526 Thomas Rd",
        "suburb": "Oakford",
        "price": 205.3,
        "lat": -32.205041,
        "lng": 115.926114
      },
      {
        "station": "Liberty Beckenham",
        "brand": "Liberty",
        "address": "63 William St",
        "suburb": "Beckenham",
        "price": 205.5,
        "lat": -32.022054,
        "lng": 115.954779
      },
      {
        "station": "FastFuel 24/7",
        "brand": "FastFuel 24/7",
        "address": "54 Cumberland Rd",
        "suburb": "Forrestfield",
        "price": 207.9,
        "lat": -31.995465,
        "lng": 116.01183
      },
      {
        "station": "Costco Perth Airport",
        "brand": "Costco",
        "address": "142 Dunreath Dr",
        "suburb": "Perth Airport",
        "price": 208.7,
        "lat": -31.940377,
        "lng": 115.951869
      },
      {
        "station": "Costco Casuarina",
        "brand": "Costco",
        "address": "137 Market St",
        "suburb": "Casuarina",
        "price": 208.7,
        "lat": -32.233481,
        "lng": 115.853714
      },
      {
        "station": "Atlas Fuel Forrestfield",
        "brand": "Atlas",
        "address": "78C Hale Rd",
        "suburb": "Forrestfield",
        "price": 208.9,
        "lat": -31.988049,
        "lng": 116.008437
      },
      {
        "station": "Atlas Fuel Wanneroo",
        "brand": "Atlas",
        "address": "951 Wanneroo Rd",
        "suburb": "Wanneroo",
        "price": 208.9,
        "lat": -31.752615,
        "lng": 115.803432
      },
      {
        "station": "Vibe Broadwater",
        "brand": "Vibe",
        "address": "375 Bussell Hwy",
        "suburb": "Broadwater",
        "price": 209.2,
        "lat": -33.659283,
        "lng": 115.298097
      },
      {
        "station": "Liberty Cannington",
        "brand": "Liberty",
        "address": "25 Cecil Ave",
        "suburb": "Cannington",
        "price": 209.2,
        "lat": -32.01664,
        "lng": 115.938196
      },
      {
        "station": "Vibe Canning Vale",
        "brand": "Vibe",
        "address": "6 Birnam Rd",
        "suburb": "Canning Vale",
        "price": 209.3,
        "lat": -32.075096,
        "lng": 115.922947
      },
      {
        "station": "Burk Camillo",
        "brand": "Burk",
        "address": "Cnr Westfield Rd & Ypres Rd",
        "suburb": "Camillo",
        "price": 209.3,
        "lat": -32.118652,
        "lng": 116.002556
      },
      {
        "station": "Burk Malaga",
        "brand": "Burk",
        "address": "1 Harlond Ave",
        "suburb": "Malaga",
        "price": 209.3,
        "lat": -31.855778,
        "lng": 115.891559
      },
      {
        "station": "Astron Quinns Rocks",
        "brand": "Astron",
        "address": "121 Quinns Rd",
        "suburb": "Quinns Rocks",
        "price": 209.5,
        "lat": -31.672657,
        "lng": 115.708282
      },
      {
        "station": "Atlas Fuel Thornlie",
        "brand": "Atlas",
        "address": "223 Yale Rd",
        "suburb": "Thornlie",
        "price": 209.5,
        "lat": -32.061092,
        "lng": 115.939257
      },
      {
        "station": "Atlas Fuel Welshpool",
        "brand": "Atlas",
        "address": "36 Welshpool Rd",
        "suburb": "Welshpool",
        "price": 209.5,
        "lat": -31.993707,
        "lng": 115.919139
      },
      {
        "station": "Vibe Baldivis",
        "brand": "Vibe",
        "address": "120 Kerosene Lane",
        "suburb": "Baldivis",
        "price": 209.7,
        "lat": -32.29762,
        "lng": 115.80712
      },
      {
        "station": "Vibe Beechboro",
        "brand": "Vibe",
        "address": "495 Beechboro Rd North",
        "suburb": "Beechboro",
        "price": 209.7,
        "lat": -31.869,
        "lng": 115.924439
      },
      {
        "station": "Vibe Ascot",
        "brand": "Vibe",
        "address": "268 Great Eastern Hwy",
        "suburb": "Ascot",
        "price": 209.7,
        "lat": -31.935968,
        "lng": 115.934361
      },
      {
        "station": "Vibe Piara Waters",
        "brand": "Vibe",
        "address": "386 Nicholson Rd",
        "suburb": "Piara Waters",
        "price": 209.7,
        "lat": -32.146852,
        "lng": 115.922099
      },
      {
        "station": "Vibe Kwinana OPT",
        "brand": "Vibe",
        "address": "Cnr Mandurah Rd & Beach St",
        "suburb": "Kwinana Beach",
        "price": 209.7,
        "lat": -32.245503,
        "lng": 115.78259
      },
      {
        "station": "Atlas Fuel Caversham",
        "brand": "Atlas",
        "address": "40 Bennett St",
        "suburb": "Caversham",
        "price": 209.8,
        "lat": -31.8719994,
        "lng": 115.9599162
      },
      {
        "station": "Atlas Fuel Jarrahdale",
        "brand": "Atlas",
        "address": "2 Jarrahdale Rd",
        "suburb": "Jarrahdale",
        "price": 209.9,
        "lat": -32.308753,
        "lng": 116.006734
      },
      {
        "station": "Solo Morley",
        "brand": "Solo",
        "address": "298 Benara Rd",
        "suburb": "Morley",
        "price": 209.9,
        "lat": -31.875866,
        "lng": 115.925309
      },
      {
        "station": "Solo Riverton",
        "brand": "Solo",
        "address": "268 High Rd",
        "suburb": "Riverton",
        "price": 209.9,
        "lat": -32.038363,
        "lng": 115.896754
      },
      {
        "station": "Atlas Fuel Golden Bay",
        "brand": "Atlas",
        "address": "2 Aurea Bvd",
        "suburb": "Golden Bay",
        "price": 209.9,
        "lat": -32.42028,
        "lng": 115.760489
      },
      {
        "station": "United Rangeway Truck Stop",
        "brand": "United",
        "address": "50 Rifle Range Rd",
        "suburb": "Rangeway",
        "price": 210.9,
        "lat": -28.784376,
        "lng": 114.629472
      },
      {
        "station": "Vibe Port Kennedy",
        "brand": "Vibe",
        "address": "35 Blackburn Dr",
        "suburb": "Port Kennedy",
        "price": 211.7,
        "lat": -32.371578,
        "lng": 115.762171
      },
      {
        "station": "Vibe Kwinana Town Centre",
        "brand": "Vibe",
        "address": "6 Chisham Ave",
        "suburb": "Kwinana Town Centre",
        "price": 211.7,
        "lat": -32.244599,
        "lng": 115.815592
      },
      {
        "station": "Petro Fuels Baldivis",
        "brand": "Petro Fuels",
        "address": "909 Mandurah Rd",
        "suburb": "Baldivis",
        "price": 211.9,
        "lat": -32.309663,
        "lng": 115.796699
      },
      {
        "station": "Vibe Wanneroo",
        "brand": "Vibe",
        "address": "964 Wanneroo Rd",
        "suburb": "Wanneroo",
        "price": 212.7,
        "lat": -31.751382,
        "lng": 115.803426
      },
      {
        "station": "Astron Neerabup",
        "brand": "Astron",
        "address": "2038 Wanneroo Rd",
        "suburb": "Neerabup",
        "price": 212.9,
        "lat": -31.672434,
        "lng": 115.743141
      },
      {
        "station": "Metro Wanneroo",
        "brand": "Metro Petroleum",
        "address": "994 Wanneroo Rd",
        "suburb": "Wanneroo",
        "price": 212.9,
        "lat": -31.748986,
        "lng": 115.801954
      },
      {
        "station": "Metro Wangara",
        "brand": "Metro Petroleum",
        "address": "79 Gnangara Rd",
        "suburb": "Wangara",
        "price": 212.9,
        "lat": -31.801903,
        "lng": 115.827519
      },
      {
        "station": "Burk Alkimos",
        "brand": "Burk",
        "address": "12 Longstaff Ave",
        "suburb": "Alkimos",
        "price": 213.3,
        "lat": -31.628239,
        "lng": 115.69118
      },
      {
        "station": "Burk Bassendean",
        "brand": "Burk",
        "address": "309 Guildford Rd",
        "suburb": "Bassendean",
        "price": 213.3,
        "lat": -31.901105,
        "lng": 115.959118
      },
      {
        "station": "Burk Mount Lawley",
        "brand": "Burk",
        "address": "791 Beaufort St",
        "suburb": "Mount Lawley",
        "price": 213.3,
        "lat": -31.925887,
        "lng": 115.880225
      },
      {
        "station": "Atlas Fuel Midvale",
        "brand": "Atlas",
        "address": "227 Morrison Rd",
        "suburb": "Midvale",
        "price": 213.5,
        "lat": -31.885583,
        "lng": 116.030335
      },
      {
        "station": "Vibe Morley",
        "brand": "Vibe",
        "address": "430 Morley Dr",
        "suburb": "Morley",
        "price": 213.7,
        "lat": -31.887832,
        "lng": 115.889889
      },
      {
        "station": "Vibe Nollamara",
        "brand": "Vibe",
        "address": "66 Sylvia St",
        "suburb": "Nollamara",
        "price": 214.3,
        "lat": -31.880514,
        "lng": 115.840339
      },
      {
        "station": "Petro Fuels Westminster",
        "brand": "Petro Fuels",
        "address": "436 Wanneroo Rd",
        "suburb": "Westminster",
        "price": 214.5,
        "lat": -31.867713,
        "lng": 115.829807
      },
      {
        "station": "OMG Metro Dianella",
        "brand": "OMG Metro",
        "address": "63 Walter Rd West",
        "suburb": "Dianella",
        "price": 214.9,
        "lat": -31.906435,
        "lng": 115.881917
      },
      {
        "station": "Vibe Forrestfield",
        "brand": "Vibe",
        "address": "159 Milner Rd",
        "suburb": "Forrestfield",
        "price": 215.3,
        "lat": -31.961356,
        "lng": 115.992227
      },
      {
        "station": "Vibe Bunbury South",
        "brand": "Vibe",
        "address": "302 Blair St",
        "suburb": "South Bunbury",
        "price": 215.3,
        "lat": -33.351866,
        "lng": 115.641941
      },
      {
        "station": "Vibe Neerabup",
        "brand": "Vibe",
        "address": "1 Pinnacle Dr",
        "suburb": "Neerabup",
        "price": 215.3,
        "lat": -31.686965,
        "lng": 115.783501
      },
      {
        "station": "Vibe Bullsbrook Northlink",
        "brand": "Vibe",
        "address": "1769 Neaves Rd",
        "suburb": "Bullsbrook",
        "price": 215.3,
        "lat": -31.654313,
        "lng": 115.974255
      },
      {
        "station": "Burk Broadwater",
        "brand": "Burk",
        "address": "545 Bussell Hwy",
        "suburb": "Broadwater",
        "price": 215.3,
        "lat": -33.659722,
        "lng": 115.279282
      },
      {
        "station": "Vibe Welshpool",
        "brand": "Vibe",
        "address": "124 Welshpool Rd",
        "suburb": "Welshpool",
        "price": 215.7,
        "lat": -31.994327,
        "lng": 115.930681
      },
      {
        "station": "Vibe Bedford",
        "brand": "Vibe",
        "address": "168 Walter Rd West",
        "suburb": "Bedford",
        "price": 215.7,
        "lat": -31.9,
        "lng": 115.889257
      },
      {
        "station": "Windmill Roadhouse",
        "brand": "Liberty",
        "address": "1 Darch St",
        "suburb": "Regans Ford",
        "price": 215.9,
        "lat": -30.983045,
        "lng": 115.702039
      },
      {
        "station": "UGO Mundaring",
        "brand": "UGO",
        "address": "5895 Great Eastern Hwy",
        "suburb": "Mundaring",
        "price": 215.9,
        "lat": -31.900609,
        "lng": 116.151983
      },
      {
        "station": "Petro Fuels Seville Grove",
        "brand": "Petro Fuels",
        "address": "537 Lake Rd",
        "suburb": "Seville Grove",
        "price": 216.9,
        "lat": -32.136834,
        "lng": 115.980305
      },
      {
        "station": "Petro Fuels Calista",
        "brand": "Liberty",
        "address": "103 Calista Ave",
        "suburb": "Calista",
        "price": 216.9,
        "lat": -32.248776,
        "lng": 115.808019
      },
      {
        "station": "Petro Fuels Swan View",
        "brand": "Petro Fuels",
        "address": "309 Morrison Rd",
        "suburb": "Swan View",
        "price": 216.9,
        "lat": -31.885693,
        "lng": 116.042187
      },
      {
        "station": "Petro Fuels Shoalwater",
        "brand": "Caltex",
        "address": "113-121 Safety Bay Rd",
        "suburb": "Shoalwater",
        "price": 216.9,
        "lat": -32.292358,
        "lng": 115.71055
      },
      {
        "station": "Burk West Swan",
        "brand": "Burk",
        "address": "6639 West Swan Rd",
        "suburb": "West Swan",
        "price": 217.3,
        "lat": -31.839036,
        "lng": 115.990655
      },
      {
        "station": "Dunning's Picton",
        "brand": "Shell",
        "address": "254 South Western Hwy",
        "suburb": "Picton",
        "price": 217.5,
        "lat": -33.351434,
        "lng": 115.69075
      },
      {
        "station": "OMG Metro Yangebup",
        "brand": "OMG Metro",
        "address": "109 Barrington St",
        "suburb": "Yangebup",
        "price": 217.9,
        "lat": -32.116891,
        "lng": 115.795446
      },
      {
        "station": "Petro Fuels Bassendean",
        "brand": "Petro Fuels",
        "address": "190 Railway Pde",
        "suburb": "Bassendean",
        "price": 218.5,
        "lat": -31.915476,
        "lng": 115.931768
      },
      {
        "station": "Petro Fuels Karragullen",
        "brand": "Petro Fuels",
        "address": "1287 Brookton Hwy",
        "suburb": "Karragullen",
        "price": 218.5,
        "lat": -32.105085,
        "lng": 116.121421
      },
      {
        "station": "Petro Fuels Albany",
        "brand": "Petro Fuels",
        "address": "250 Albany Hwy",
        "suburb": "Centennial Park",
        "price": 218.9,
        "lat": -35.009895,
        "lng": 117.870443
      },
      {
        "station": "Metro Canning Vale",
        "brand": "Metro Petroleum",
        "address": "Lot 322 Ranford Rd",
        "suburb": "Canning Vale",
        "price": 218.9,
        "lat": -32.092476,
        "lng": 115.923934
      },
      {
        "station": "Petro Fuels Bluff Point",
        "brand": "Petro Fuels",
        "address": "381 Chapman Rd",
        "suburb": "Bluff Point",
        "price": 218.9,
        "lat": -28.74142,
        "lng": 114.622456
      },
      {
        "station": "Metro Midvale",
        "brand": "Metro Petroleum",
        "address": "83 Farrall Rd",
        "suburb": "Midvale",
        "price": 218.9,
        "lat": -31.885552,
        "lng": 116.032753
      },
      {
        "station": "Vibe Byford",
        "brand": "Vibe",
        "address": "868 South Western Hwy",
        "suburb": "Byford",
        "price": 219.3,
        "lat": -32.221206,
        "lng": 116.009206
      },
      {
        "station": "Vibe Hamilton Hill",
        "brand": "Vibe",
        "address": "114 Rockingham Rd",
        "suburb": "Hamilton Hill",
        "price": 219.3,
        "lat": -32.086143,
        "lng": 115.777233
      },
      {
        "station": "Vibe Jandakot",
        "brand": "Vibe",
        "address": "630 Karel Ave",
        "suburb": "Jandakot",
        "price": 219.3,
        "lat": -32.090758,
        "lng": 115.868846
      },
      {
        "station": "Liberty West Busselton",
        "brand": "Liberty",
        "address": "259 Bussell Hwy",
        "suburb": "West Busselton",
        "price": 219.3,
        "lat": -33.657357,
        "lng": 115.31171
      },
      {
        "station": "Vibe Siesta Park",
        "brand": "Vibe",
        "address": "367 Caves Rd",
        "suburb": "Kealy",
        "price": 219.5,
        "lat": -33.655538,
        "lng": 115.220151
      },
      {
        "station": "United Byford",
        "brand": "United",
        "address": "801-803 South Western Hwy",
        "suburb": "Byford",
        "price": 219.5,
        "lat": -32.2154436,
        "lng": 116.0080304
      },
      {
        "station": "Vibe Upper Swan",
        "brand": "Vibe",
        "address": "1447 Great Northern Hwy",
        "suburb": "Upper Swan",
        "price": 219.5,
        "lat": -31.765846,
        "lng": 116.031763
      },
      {
        "station": "United Tapping",
        "brand": "United",
        "address": "1369 Wanneroo Rd",
        "suburb": "Wanneroo",
        "price": 219.5,
        "lat": -31.719744,
        "lng": 115.783408
      },
      {
        "station": "Liberty Oyster Harbour",
        "brand": "Liberty",
        "address": "4 Bayonet Head Rd",
        "suburb": "Bayonet Head",
        "price": 219.5,
        "lat": -34.981779,
        "lng": 117.922103
      },
      {
        "station": "Liberty McKail",
        "brand": "Liberty",
        "address": "557 Albany Hwy",
        "suburb": "Mckail",
        "price": 219.5,
        "lat": -34.985495,
        "lng": 117.851724
      },
      {
        "station": "Liberty Banksia Grove",
        "brand": "Liberty",
        "address": "7 Honeybee Pde",
        "suburb": "Banksia Grove",
        "price": 219.5,
        "lat": -31.703225,
        "lng": 115.798512
      },
      {
        "station": "Liberty Pinjarra",
        "brand": "Liberty",
        "address": "Cnr Pinjarra Rd & Carey St",
        "suburb": "Pinjarra",
        "price": 219.5,
        "lat": -32.626282,
        "lng": 115.869595
      },
      {
        "station": "United Pinjarra Truck Stop",
        "brand": "United",
        "address": "1602 Pinjarra Rd",
        "suburb": "Pinjarra",
        "price": 219.5,
        "lat": -32.610785,
        "lng": 115.848041
      },
      {
        "station": "Liberty Dalyellup",
        "brand": "Liberty",
        "address": "9 Norton Prom",
        "suburb": "Dalyellup",
        "price": 219.5,
        "lat": -33.396215,
        "lng": 115.636958
      },
      {
        "station": "Shell High Wycombe",
        "brand": "Shell",
        "address": "1100 Abernethy Rd",
        "suburb": "High Wycombe",
        "price": 219.5,
        "lat": -31.938206,
        "lng": 115.992146
      },
      {
        "station": "Liberty Dongara",
        "brand": "Liberty",
        "address": "30215 Brand Hwy",
        "suburb": "Dongara",
        "price": 219.5,
        "lat": -29.253038,
        "lng": 114.956368
      },
      {
        "station": "Liberty East Rockingham",
        "brand": "Liberty",
        "address": "115 Dixon Rd",
        "suburb": "East Rockingham",
        "price": 219.5,
        "lat": -32.2766666,
        "lng": 115.773403
      },
      {
        "station": "Liberty Gosnells",
        "brand": "Liberty",
        "address": "2341 Albany Hwy",
        "suburb": "Gosnells",
        "price": 219.5,
        "lat": -32.075216,
        "lng": 116.005816
      },
      {
        "station": "Liberty Landsdale",
        "brand": "Liberty",
        "address": "2 Cowle St",
        "suburb": "Landsdale",
        "price": 219.5,
        "lat": -31.802758,
        "lng": 115.837737
      },
      {
        "station": "Liberty Tapping",
        "brand": "Liberty",
        "address": "3 Herdsman Lane",
        "suburb": "Wanneroo",
        "price": 219.5,
        "lat": -31.720162,
        "lng": 115.783898
      },
      {
        "station": "United Naval Base Truck Stop",
        "brand": "United",
        "address": "13 Lionel St",
        "suburb": "Naval Base",
        "price": 219.5,
        "lat": -32.195425,
        "lng": 115.783106
      },
      {
        "station": "Liberty Naval Base",
        "brand": "Liberty",
        "address": "24 Dooley St",
        "suburb": "Naval Base",
        "price": 219.5,
        "lat": -32.197618,
        "lng": 115.783018
      },
      {
        "station": "Liberty Busselton West",
        "brand": "Liberty",
        "address": "100 West St",
        "suburb": "West Busselton",
        "price": 219.5,
        "lat": -33.656076,
        "lng": 115.341215
      },
      {
        "station": "Liberty O'Connor",
        "brand": "Liberty",
        "address": "9 Pritchard St",
        "suburb": "O'Connor",
        "price": 219.5,
        "lat": -32.063065,
        "lng": 115.792017
      },
      {
        "station": "Atlas Fuel Geraldton",
        "brand": "Atlas",
        "address": "184 North West Coastal Hwy",
        "suburb": "Wonthella",
        "price": 219.5,
        "lat": -28.759596,
        "lng": 114.625109
      },
      {
        "station": "Lori's Fuel Supply",
        "brand": "Independent",
        "address": "259 Railway Ave",
        "suburb": "Kelmscott",
        "price": 219.7,
        "lat": -32.135359,
        "lng": 116.009481
      },
      {
        "station": "Vibe Pinjarra",
        "brand": "Vibe",
        "address": "58 George St",
        "suburb": "Pinjarra",
        "price": 219.7,
        "lat": -32.63094,
        "lng": 115.872555
      },
      {
        "station": "Vibe Toodyay Rd",
        "brand": "Vibe",
        "address": "2086 Toodyay Rd",
        "suburb": "Gidgegannup",
        "price": 219.7,
        "lat": -31.794245,
        "lng": 116.193148
      },
      {
        "station": "Vibe Mandurah",
        "brand": "Vibe",
        "address": "2 Rafferty Rd",
        "suburb": "Mandurah",
        "price": 219.7,
        "lat": -32.517315,
        "lng": 115.743891
      },
      {
        "station": "Vibe Mt Helena",
        "brand": "Vibe",
        "address": "9 McVicar Pl",
        "suburb": "Mount Helena",
        "price": 219.7,
        "lat": -31.878494,
        "lng": 116.209053
      },
      {
        "station": "Vibe Henderson",
        "brand": "Vibe",
        "address": "Lot 104 Russel Rd",
        "suburb": "Henderson",
        "price": 219.7,
        "lat": -32.146141,
        "lng": 115.779092
      },
      {
        "station": "Caltex Kwinana Truck Stop",
        "brand": "Caltex",
        "address": "4 Ocean St",
        "suburb": "Kwinana Beach",
        "price": 219.7,
        "lat": -32.247525,
        "lng": 115.773262
      },
      {
        "station": "Caltex Maddington Truck Stop",
        "brand": "Caltex",
        "address": "18 Orchard Rd",
        "suburb": "Maddington",
        "price": 219.7,
        "lat": -32.035207,
        "lng": 115.999195
      },
      {
        "station": "Caltex Edgewater",
        "brand": "Caltex",
        "address": "2 The Gateway",
        "suburb": "Edgewater",
        "price": 219.7,
        "lat": -31.763449,
        "lng": 115.773396
      },
      {
        "station": "7-Eleven Malaga",
        "brand": "7-Eleven",
        "address": "650 Marshall Rd",
        "suburb": "Malaga",
        "price": 219.9,
        "lat": -31.856778,
        "lng": 115.908098
      },
      {
        "station": "7-Eleven Landsdale",
        "brand": "7-Eleven",
        "address": "8 Mullingar Way",
        "suburb": "Landsdale",
        "price": 219.9,
        "lat": -31.804934,
        "lng": 115.835741
      },
      {
        "station": "7-Eleven Thornlie",
        "brand": "7-Eleven",
        "address": "125 Murdoch Rd",
        "suburb": "Thornlie",
        "price": 219.9,
        "lat": -32.06954,
        "lng": 115.952095
      },
      {
        "station": "Ampol Foodary Lakelands",
        "brand": "Ampol",
        "address": "Lot 50 Mandurah Rd",
        "suburb": "Meadow Springs",
        "price": 219.9,
        "lat": -32.479203,
        "lng": 115.757774
      },
      {
        "station": "Ampol Foodary Gelorup",
        "brand": "Ampol",
        "address": "39 Bussell Hwy",
        "suburb": "Gelorup",
        "price": 219.9,
        "lat": -33.393066,
        "lng": 115.641528
      },
      {
        "station": "Ampol Foodary Forrest Highway North",
        "brand": "Ampol",
        "address": "Lot 602 Forrest Hwy",
        "suburb": "West Pinjarra",
        "price": 219.9,
        "lat": -32.685,
        "lng": 115.776
      },
      {
        "station": "Ampol Foodary Cockburn Central",
        "brand": "Ampol",
        "address": "875 Beeliar Dr",
        "suburb": "Jandakot",
        "price": 219.9,
        "lat": -32.126786,
        "lng": 115.862138
      },
      {
        "station": "Ampol Foodary Forrest Highway South",
        "brand": "Ampol",
        "address": "Lot 601 Forrest Hwy",
        "suburb": "West Pinjarra",
        "price": 219.9,
        "lat": -32.686,
        "lng": 115.778
      },
      {
        "station": "Ampol Foodary Ascot",
        "brand": "Ampol",
        "address": "204 Great Eastern Hwy",
        "suburb": "Ascot",
        "price": 219.9,
        "lat": -31.94098,
        "lng": 115.926337
      },
      {
        "station": "Ampol Foodary Malaga",
        "brand": "Ampol",
        "address": "1 Capital Rd",
        "suburb": "Malaga",
        "price": 219.9,
        "lat": -31.848235,
        "lng": 115.878484
      },
      {
        "station": "Ampol Foodary Karrinyup",
        "brand": "Ampol",
        "address": "490 Karrinyup Rd",
        "suburb": "Gwelup",
        "price": 219.9,
        "lat": -31.882078,
        "lng": 115.796245
      },
      {
        "station": "Ampol Foodary Ashby",
        "brand": "Ampol",
        "address": "2 Hollosy Way",
        "suburb": "Ashby",
        "price": 219.9,
        "lat": -31.73256,
        "lng": 115.80416
      },
      {
        "station": "Ampol Foodary Stratton",
        "brand": "Ampol",
        "address": "240 Toodyay Rd",
        "suburb": "Stratton",
        "price": 219.9,
        "lat": -31.865605,
        "lng": 116.032828
      },
      {
        "station": "Ampol Foodary East Fremantle",
        "brand": "Ampol",
        "address": "176 Canning Hwy",
        "suburb": "East Fremantle",
        "price": 219.9,
        "lat": -32.040657,
        "lng": 115.766241
      },
      {
        "station": "Ampol Foodary Yangebup",
        "brand": "Ampol",
        "address": "289 Beeliar Dr",
        "suburb": "Yangebup",
        "price": 219.9,
        "lat": -32.127568,
        "lng": 115.799158
      },
      {
        "station": "Ampol Foodary Nedlands",
        "brand": "Ampol",
        "address": "7 Broadway",
        "suburb": "Nedlands",
        "price": 219.9,
        "lat": -31.97762,
        "lng": 115.813656
      },
      {
        "station": "Ampol Foodary Belmont",
        "brand": "Ampol",
        "address": "303 Great Eastern Hwy",
        "suburb": "Belmont",
        "price": 219.9,
        "lat": -31.937734,
        "lng": 115.933447
      },
      {
        "station": "Ampol Foodary Glendalough",
        "brand": "Ampol",
        "address": "2 Jon Sanders Dr",
        "suburb": "Glendalough",
        "price": 219.9,
        "lat": -31.922426,
        "lng": 115.819754
      },
      {
        "station": "Ampol Foodary Mosman Park",
        "brand": "Ampol",
        "address": "676 Stirling Hwy",
        "suburb": "Mosman Park",
        "price": 219.9,
        "lat": -32.011969,
        "lng": 115.755567
      },
      {
        "station": "Ampol Foodary Baldivis",
        "brand": "Ampol",
        "address": "614 Baldivis Rd",
        "suburb": "Baldivis",
        "price": 219.9,
        "lat": -32.330641,
        "lng": 115.820995
      },
      {
        "station": "Ampol Foodary Melville",
        "brand": "Ampol",
        "address": "585 Canning Hwy",
        "suburb": "Alfred Cove",
        "price": 219.9,
        "lat": -32.031217,
        "lng": 115.815428
      },
      {
        "station": "Ampol Foodary Gosnells North",
        "brand": "Ampol",
        "address": "2100 Albany Hwy",
        "suburb": "Gosnells",
        "price": 219.9,
        "lat": -32.064148,
        "lng": 115.999536
      },
      {
        "station": "Ampol Foodary Leederville",
        "brand": "Ampol",
        "address": "319 Vincent St",
        "suburb": "Leederville",
        "price": 219.9,
        "lat": -31.936816,
        "lng": 115.840025
      },
      {
        "station": "Ampol Foodary East Perth",
        "brand": "Ampol",
        "address": "157 Lord St",
        "suburb": "Perth",
        "price": 219.9,
        "lat": -31.948689,
        "lng": 115.869567
      },
      {
        "station": "Ampol Foodary Yanchep",
        "brand": "Ampol",
        "address": "1 Morwell St",
        "suburb": "Yanchep",
        "price": 219.9,
        "lat": -31.552063,
        "lng": 115.639632
      },
      {
        "station": "Ampol Foodary Doubleview",
        "brand": "Ampol",
        "address": "365 Scarborough Beach Rd",
        "suburb": "Doubleview",
        "price": 219.9,
        "lat": -31.901328,
        "lng": 115.794203
      },
      {
        "station": "Ampol Foodary Dawesville",
        "brand": "Ampol",
        "address": "191 Bailey Bvd",
        "suburb": "Dawesville",
        "price": 219.9,
        "lat": -32.630805,
        "lng": 115.632323
      },
      {
        "station": "Ampol Foodary North Wanneroo",
        "brand": "Ampol",
        "address": "2624 Wanneroo Rd",
        "suburb": "Nowergup",
        "price": 219.9,
        "lat": -31.625661,
        "lng": 115.718259
      },
      {
        "station": "Ampol Foodary Carine",
        "brand": "Ampol",
        "address": "510 Beach Rd",
        "suburb": "Carine",
        "price": 219.9,
        "lat": -31.846312,
        "lng": 115.795363
      },
      {
        "station": "Ampol Foodary Joondalup",
        "brand": "Ampol",
        "address": "420 Joondalup Dr",
        "suburb": "Joondalup",
        "price": 219.9,
        "lat": -31.741328,
        "lng": 115.764003
      },
      {
        "station": "Ampol Foodary Wangara",
        "brand": "Ampol",
        "address": "79 Buckingham Dr",
        "suburb": "Wangara",
        "price": 219.9,
        "lat": -31.787725,
        "lng": 115.828285
      },
      {
        "station": "Ampol Foodary Greenfields",
        "brand": "Ampol",
        "address": "35 Minilya Pkwy",
        "suburb": "Greenfields",
        "price": 219.9,
        "lat": -32.52975,
        "lng": 115.76414
      },
      {
        "station": "Ampol Foodary North Yunderup",
        "brand": "Ampol",
        "address": "868 Pinjarra Rd",
        "suburb": "Furnissdale",
        "price": 219.9,
        "lat": -32.56712,
        "lng": 115.798359
      },
      {
        "station": "Ampol Foodary Warnbro",
        "brand": "Ampol",
        "address": "2 Bristol St",
        "suburb": "Warnbro",
        "price": 219.9,
        "lat": -32.328853,
        "lng": 115.758691
      },
      {
        "station": "Ampol Foodary Falcon (Miami Beach)",
        "brand": "Ampol",
        "address": "2 Baroy St",
        "suburb": "Falcon",
        "price": 219.9,
        "lat": -32.581154,
        "lng": 115.66148
      },
      {
        "station": "Ampol Foodary Erskine",
        "brand": "Ampol",
        "address": "112 Oakleigh Dr",
        "suburb": "Erskine",
        "price": 219.9,
        "lat": -32.560162,
        "lng": 115.689519
      },
      {
        "station": "Ampol Foodary Secret Harbour",
        "brand": "Ampol",
        "address": "420 Secret Harbour Bvd",
        "suburb": "Secret Harbour",
        "price": 219.9,
        "lat": -32.407011,
        "lng": 115.759423
      },
      {
        "station": "Ampol Foodary Kingsley",
        "brand": "Ampol",
        "address": "86 Kingsley Dr",
        "suburb": "Kingsley",
        "price": 219.9,
        "lat": -31.807038,
        "lng": 115.788723
      },
      {
        "station": "Ampol Foodary Northlands",
        "brand": "Ampol",
        "address": "391 Wanneroo Rd",
        "suburb": "Balcatta",
        "price": 219.9,
        "lat": -31.872542,
        "lng": 115.830984
      },
      {
        "station": "Ampol Foodary Clarkson",
        "brand": "Ampol",
        "address": "7 Ocean Keys Bvd",
        "suburb": "Clarkson",
        "price": 219.9,
        "lat": -31.689369,
        "lng": 115.715226
      },
      {
        "station": "Ampol Foodary Forrestdale",
        "brand": "Ampol",
        "address": "63 Alex Wood Dr",
        "suburb": "Forrestdale",
        "price": 219.9,
        "lat": -32.146558,
        "lng": 115.965549
      },
      {
        "station": "Ampol Foodary Butler",
        "brand": "Ampol",
        "address": "11 Headingly Cr",
        "suburb": "Butler",
        "price": 219.9,
        "lat": -31.65413,
        "lng": 115.71258
      },
      {
        "station": "Ampol Foodary Scarborough",
        "brand": "Ampol",
        "address": "74 Scarborough Beach Rd",
        "suburb": "Scarborough",
        "price": 219.9,
        "lat": -31.893826,
        "lng": 115.764402
      },
      {
        "station": "Ampol Foodary Mt Lawley",
        "brand": "Ampol",
        "address": "810 Beaufort St",
        "suburb": "Mount Lawley",
        "price": 219.9,
        "lat": -31.925179,
        "lng": 115.881917
      },
      {
        "station": "Ampol Foodary Altone Road",
        "brand": "Ampol",
        "address": "159 Altone Rd",
        "suburb": "Beechboro",
        "price": 219.9,
        "lat": -31.871201,
        "lng": 115.945179
      },
      {
        "station": "Ampol Foodary Malaga Drive",
        "brand": "Ampol",
        "address": "76 Malaga Dr",
        "suburb": "Malaga",
        "price": 219.9,
        "lat": -31.863189,
        "lng": 115.893921
      },
      {
        "station": "Ampol Foodary Kewdale",
        "brand": "Ampol",
        "address": "2 Fenton St",
        "suburb": "Kewdale",
        "price": 219.9,
        "lat": -31.98365,
        "lng": 115.955901
      },
      {
        "station": "Ampol Foodary Bentley",
        "brand": "Ampol",
        "address": "91-93 Manning Rd",
        "suburb": "Bentley",
        "price": 219.9,
        "lat": -32.012142,
        "lng": 115.914131
      },
      {
        "station": "Ampol Foodary Subiaco",
        "brand": "Ampol",
        "address": "194 Rokeby Rd",
        "suburb": "Subiaco",
        "price": 219.9,
        "lat": -31.950616,
        "lng": 115.824234
      },
      {
        "station": "Ampol Foodary Gosnells",
        "brand": "Ampol",
        "address": "158 Corfield St",
        "suburb": "Gosnells",
        "price": 219.9,
        "lat": -32.079794,
        "lng": 115.988117
      },
      {
        "station": "Ampol Foodary Rivervale",
        "brand": "Ampol",
        "address": "111 Great Eastern Hwy",
        "suburb": "Rivervale",
        "price": 219.9,
        "lat": -31.953623,
        "lng": 115.913619
      },
      {
        "station": "Ampol Foodary Cannington",
        "brand": "Ampol",
        "address": "1346 Albany Hwy",
        "suburb": "Cannington",
        "price": 219.9,
        "lat": -32.017556,
        "lng": 115.934873
      },
      {
        "station": "Ampol Welshpool Diesel Stop",
        "brand": "Ampol",
        "address": "119 Kurnall Rd",
        "suburb": "Welshpool",
        "price": 219.9,
        "lat": -31.990084,
        "lng": 115.962119
      },
      {
        "station": "Ampol Foodary Byford",
        "brand": "Ampol",
        "address": "Lot 22 South Western Hwy",
        "suburb": "Byford",
        "price": 219.9,
        "lat": -32.226368,
        "lng": 116.008
      },
      {
        "station": "Ampol Foodary Bunbury",
        "brand": "Ampol",
        "address": "1 Forrest Ave",
        "suburb": "Bunbury",
        "price": 219.9,
        "lat": -33.336723,
        "lng": 115.641414
      },
      {
        "station": "Ampol Foodary High Wycombe",
        "brand": "Ampol",
        "address": "967-969 Abernethy Rd",
        "suburb": "High Wycombe",
        "price": 219.9,
        "lat": -31.951585,
        "lng": 115.987387
      },
      {
        "station": "Ampol Foodary Applecross",
        "brand": "Ampol",
        "address": "918 Canning Hwy",
        "suburb": "Applecross",
        "price": 219.9,
        "lat": -32.01154,
        "lng": 115.850201
      },
      {
        "station": "Ampol Foodary Thornlie Square",
        "brand": "Ampol",
        "address": "316 Spencer Rd",
        "suburb": "Thornlie",
        "price": 219.9,
        "lat": -32.055755,
        "lng": 115.96194
      },
      {
        "station": "Ampol Foodary Willetton",
        "brand": "Ampol",
        "address": "169 High Rd",
        "suburb": "Willetton",
        "price": 219.9,
        "lat": -32.039109,
        "lng": 115.88406
      },
      {
        "station": "Ampol Foodary Murdoch",
        "brand": "Ampol",
        "address": "10 Robson Way",
        "suburb": "Murdoch",
        "price": 219.9,
        "lat": -32.063419,
        "lng": 115.835712
      },
      {
        "station": "Ampol Foodary Midvale",
        "brand": "Ampol",
        "address": "371 Great Eastern Hwy",
        "suburb": "Midvale",
        "price": 219.9,
        "lat": -31.894607,
        "lng": 116.031005
      },
      {
        "station": "Ampol Foodary Rockingham",
        "brand": "Ampol",
        "address": "29 Dixon Rd",
        "suburb": "Rockingham",
        "price": 219.9,
        "lat": -32.2769,
        "lng": 115.749819
      },
      {
        "station": "Ampol Foodary Livingston",
        "brand": "Ampol",
        "address": "110 Ranford Rd",
        "suburb": "Canning Vale",
        "price": 219.9,
        "lat": -32.087082,
        "lng": 115.916536
      },
      {
        "station": "Ampol Foodary Bannister Road",
        "brand": "Ampol",
        "address": "60 Bannister Rd",
        "suburb": "Canning Vale",
        "price": 219.9,
        "lat": -32.06343,
        "lng": 115.926402
      },
      {
        "station": "Ampol Foodary O'Connor",
        "brand": "Ampol",
        "address": "309 Stock Rd",
        "suburb": "O'Connor",
        "price": 219.9,
        "lat": -32.05517,
        "lng": 115.793146
      },
      {
        "station": "Ampol Foodary South Lake",
        "brand": "Ampol",
        "address": "2 Omeo St",
        "suburb": "South Lake",
        "price": 219.9,
        "lat": -32.108271,
        "lng": 115.829221
      },
      {
        "station": "Ampol Foodary Kwinana",
        "brand": "Ampol",
        "address": "Cnr Mandurah Rd & Wellard Rd",
        "suburb": "Kwinana Beach",
        "price": 219.9,
        "lat": -32.248836,
        "lng": 115.78268
      },
      {
        "station": "Ampol Bibra Lake Diesel Stop",
        "brand": "Ampol",
        "address": "5 Cocos Dr",
        "suburb": "Bibra Lake",
        "price": 219.9,
        "lat": -32.1094,
        "lng": 115.8097
      },
      {
        "station": "Atlas Fuel Sawyers Valley",
        "brand": "Atlas",
        "address": "10895 Great Eastern Hwy",
        "suburb": "Sawyers Valley",
        "price": 219.9,
        "lat": -31.903211,
        "lng": 116.205032
      },
      {
        "station": "Ampol Rous Head",
        "brand": "Ampol",
        "address": "Cnr North Mole Dr & Rous Head Rd",
        "suburb": "North Fremantle",
        "price": 219.9,
        "lat": -32.041146,
        "lng": 115.738844
      },
      {
        "station": "Atlas Fuel Stratton",
        "brand": "Atlas",
        "address": "177 O'Connor Rd",
        "suburb": "Stratton",
        "price": 219.9,
        "lat": -31.869738,
        "lng": 116.034377
      },
      {
        "station": "United East Victoria Park",
        "brand": "United",
        "address": "916 Albany Hwy",
        "suburb": "East Victoria Park",
        "price": 221.5,
        "lat": -31.98781,
        "lng": 115.905402
      },
      {
        "station": "United Albany Orana",
        "brand": "United",
        "address": "367 Albany Hwy",
        "suburb": "Orana",
        "price": 221.5,
        "lat": -35.001813,
        "lng": 117.863298
      },
      {
        "station": "Vibe Donnybrook",
        "brand": "Vibe",
        "address": "45 South Western Hwy",
        "suburb": "Donnybrook",
        "price": 221.7,
        "lat": -33.57573,
        "lng": 115.8252
      },
      {
        "station": "Vibe Bayswater",
        "brand": "Vibe",
        "address": "120 Beechboro Rd South",
        "suburb": "Bayswater",
        "price": 221.7,
        "lat": -31.9046833,
        "lng": 115.9163268
      },
      {
        "station": "United Leda",
        "brand": "United",
        "address": "2 Feilman Dr",
        "suburb": "Leda",
        "price": 221.9,
        "lat": -32.260187,
        "lng": 115.806552
      },
      {
        "station": "Metro Bassendean",
        "brand": "Metro Petroleum",
        "address": "335 Collier Rd",
        "suburb": "Bassendean",
        "price": 221.9,
        "lat": -31.905283,
        "lng": 115.932367
      },
      {
        "station": "Geographe Petroleum",
        "brand": "Liberty",
        "address": "84 Strelly St",
        "suburb": "Busselton",
        "price": 222.5,
        "lat": -33.662853,
        "lng": 115.348585
      },
      {
        "station": "Colroy Country Kitchen",
        "brand": "Ampol",
        "address": "93 Capel Dr",
        "suburb": "Capel",
        "price": 222.9,
        "lat": -33.551653,
        "lng": 115.563367
      },
      {
        "station": "Petro Fuels Carbunup River",
        "brand": "Petro Fuels",
        "address": "6672 Bussell Hwy",
        "suburb": "Carbunup River",
        "price": 222.9,
        "lat": -33.699022,
        "lng": 115.189037
      },
      {
        "station": "S-Bend Caravan Park",
        "brand": "Liberty",
        "address": "27 Company Rd",
        "suburb": "South Greenough",
        "price": 223.0,
        "lat": -28.984502,
        "lng": 114.774161
      },
      {
        "station": "Vibe Charles St",
        "brand": "Vibe",
        "address": "427 Charles St",
        "suburb": "North Perth",
        "price": 223.3,
        "lat": -31.922312,
        "lng": 115.850264
      },
      {
        "station": "Vibe Subiaco",
        "brand": "Vibe",
        "address": "123 Thomas St",
        "suburb": "Subiaco",
        "price": 223.3,
        "lat": -31.952307,
        "lng": 115.83115
      },
      {
        "station": "Vibe Bunbury Central",
        "brand": "Vibe",
        "address": "42 Strickland St",
        "suburb": "Bunbury",
        "price": 223.3,
        "lat": -33.336043,
        "lng": 115.646957
      },
      {
        "station": "Vibe Osborne Park",
        "brand": "Vibe",
        "address": "7 Hutton St",
        "suburb": "Osborne Park",
        "price": 223.3,
        "lat": -31.90631,
        "lng": 115.813744
      },
      {
        "station": "Vibe Bunbury North",
        "brand": "Vibe",
        "address": "81 King Rd",
        "suburb": "East Bunbury",
        "price": 223.3,
        "lat": -33.336038,
        "lng": 115.654472
      },
      {
        "station": "United Armadale",
        "brand": "United",
        "address": "178 South Western Hwy",
        "suburb": "Armadale",
        "price": 223.5,
        "lat": -32.161492,
        "lng": 116.0176
      },
      {
        "station": "United Hepburn Heights",
        "brand": "United",
        "address": "4 Walter Padbury Bvd",
        "suburb": "Padbury",
        "price": 223.5,
        "lat": -31.81889,
        "lng": 115.774096
      },
      {
        "station": "United Lexia Truck Stop",
        "brand": "United",
        "address": "779 Gnangara Rd",
        "suburb": "Lexia",
        "price": 223.5,
        "lat": -31.795189,
        "lng": 115.899559
      },
      {
        "station": "United Osborne Park",
        "brand": "United",
        "address": "479 Scarborough Beach Rd",
        "suburb": "Osborne Park",
        "price": 223.5,
        "lat": -31.904837,
        "lng": 115.80609
      },
      {
        "station": "United Northbridge",
        "brand": "United",
        "address": "31 Fitzgerald St",
        "suburb": "Northbridge",
        "price": 223.5,
        "lat": -31.945612,
        "lng": 115.852438
      },
      {
        "station": "United Ellenbrook",
        "brand": "United",
        "address": "3 Locke Lane",
        "suburb": "Ellenbrook",
        "price": 223.5,
        "lat": -31.77852,
        "lng": 115.96699
      },
      {
        "station": "United South Lake",
        "brand": "United",
        "address": "49 Berrigan Dr",
        "suburb": "South Lake",
        "price": 223.5,
        "lat": -32.111481,
        "lng": 115.838833
      },
      {
        "station": "United Southern River",
        "brand": "United",
        "address": "Lot 101 Terrier Pl",
        "suburb": "Southern River",
        "price": 223.5,
        "lat": -32.121136,
        "lng": 115.954582
      },
      {
        "station": "United Maddington Truck Stop",
        "brand": "United",
        "address": "13 Stebbing Rd",
        "suburb": "Maddington",
        "price": 223.5,
        "lat": -32.042356,
        "lng": 115.99131
      },
      {
        "station": "United Anketell",
        "brand": "United",
        "address": "5 Albina Ave",
        "suburb": "Anketell",
        "price": 223.5,
        "lat": -32.211351,
        "lng": 115.855637
      },
      {
        "station": "United Vasse Truck Stop",
        "brand": "United",
        "address": "210 Northerly St",
        "suburb": "Vasse",
        "price": 223.5,
        "lat": -33.684229,
        "lng": 115.23136
      },
      {
        "station": "United Anketell South",
        "brand": "United",
        "address": "805 Thomas Rd",
        "suburb": "Anketell",
        "price": 223.5,
        "lat": -32.227802,
        "lng": 115.8558758
      },
      {
        "station": "Shell Reddy Express Scarborough",
        "brand": "Reddy Express",
        "address": "205 West Coast Hwy",
        "suburb": "Scarborough",
        "price": 223.5,
        "lat": -31.892841,
        "lng": 115.757287
      },
      {
        "station": "Shell Reddy Express Kingsley",
        "brand": "Reddy Express",
        "address": "47 Renegade Way",
        "suburb": "Kingsley",
        "price": 223.5,
        "lat": -31.81975,
        "lng": 115.805778
      },
      {
        "station": "Shell Reddy Express Upper Swan Roadhouse",
        "brand": "Reddy Express",
        "address": "1333 Great Northern Hwy",
        "suburb": "Upper Swan",
        "price": 223.5,
        "lat": -31.774597,
        "lng": 116.025849
      },
      {
        "station": "Shell Reddy Express Jolimont",
        "brand": "Reddy Express",
        "address": "6 Jersey St",
        "suburb": "Jolimont",
        "price": 223.5,
        "lat": -31.947273,
        "lng": 115.811941
      },
      {
        "station": "Shell Reddy Express Claremont",
        "brand": "Reddy Express",
        "address": "269 Stirling Hwy",
        "suburb": "Claremont",
        "price": 223.5,
        "lat": -31.982195,
        "lng": 115.78389
      },
      {
        "station": "Shell Reddy Express West Perth",
        "brand": "Reddy Express",
        "address": "30 Thomas St",
        "suburb": "West Perth",
        "price": 223.5,
        "lat": -31.945494,
        "lng": 115.839719
      },
      {
        "station": "Shell Reddy Express Palmyra",
        "brand": "Reddy Express",
        "address": "80 Carrington St",
        "suburb": "Palmyra",
        "price": 223.5,
        "lat": -32.047319,
        "lng": 115.779904
      },
      {
        "station": "Shell Reddy Express Victoria Park",
        "brand": "Reddy Express",
        "address": "66 Kent St",
        "suburb": "East Victoria Park",
        "price": 223.5,
        "lat": -31.985535,
        "lng": 115.896186
      },
      {
        "station": "Shell Reddy Express Langford",
        "brand": "Reddy Express",
        "address": "70 Nicholson Rd",
        "suburb": "Langford",
        "price": 223.5,
        "lat": -32.031879,
        "lng": 115.938841
      },
      {
        "station": "Shell Reddy Express Kewdale",
        "brand": "Reddy Express",
        "address": "518 Abernethy Rd",
        "suburb": "Kewdale",
        "price": 223.5,
        "lat": -31.980262,
        "lng": 115.958507
      },
      {
        "station": "Shell Reddy Express Lakelands",
        "brand": "Reddy Express",
        "address": "49 Banksiadale Gte",
        "suburb": "Lakelands",
        "price": 223.5,
        "lat": -32.46906,
        "lng": 115.759677
      },
      {
        "station": "Shell Reddy Express Mandurah",
        "brand": "Reddy Express",
        "address": "Cnr Pinjarra Rd & Watson Dr",
        "suburb": "Barragup",
        "price": 223.5,
        "lat": -32.551075,
        "lng": 115.778636
      },
      {
        "station": "Shell Reddy Express Halls Head",
        "brand": "Reddy Express",
        "address": "14 Guava Way",
        "suburb": "Halls Head",
        "price": 223.5,
        "lat": -32.550115,
        "lng": 115.70273
      },
      {
        "station": "Shell Reddy Express Bunbury Gateway",
        "brand": "Reddy Express",
        "address": "9805 Forrest Hwy",
        "suburb": "Glen Iris",
        "price": 223.5,
        "lat": -33.334737,
        "lng": 115.685315
      },
      {
        "station": "OTR Maddington",
        "brand": "Shell",
        "address": "1-3 Sampson St",
        "suburb": "Maddington",
        "price": 223.5,
        "lat": -32.049491,
        "lng": 115.981099
      },
      {
        "station": "Shell Reddy Express Busselton",
        "brand": "Reddy Express",
        "address": "88 Causeway Rd",
        "suburb": "Busselton",
        "price": 223.5,
        "lat": -33.660891,
        "lng": 115.355661
      },
      {
        "station": "Shell Reddy Express Vasse",
        "brand": "Reddy Express",
        "address": "2 Napoleon Prom",
        "suburb": "Vasse",
        "price": 223.5,
        "lat": -33.675175,
        "lng": 115.251206
      },
      {
        "station": "Shell Reddy Express Warwick",
        "brand": "Reddy Express",
        "address": "274 Erindale Rd",
        "suburb": "Warwick",
        "price": 223.5,
        "lat": -31.844434,
        "lng": 115.812742
      },
      {
        "station": "Shell Reddy Express Duncraig",
        "brand": "Reddy Express",
        "address": "193 Warwick Rd",
        "suburb": "Duncraig",
        "price": 223.5,
        "lat": -31.835583,
        "lng": 115.782828
      },
      {
        "station": "Shell Reddy Express Girrawheen",
        "brand": "Reddy Express",
        "address": "60 Marangaroo Dr",
        "suburb": "Girrawheen",
        "price": 223.5,
        "lat": -31.834601,
        "lng": 115.828903
      },
      {
        "station": "Shell Reddy Express Malaga",
        "brand": "Reddy Express",
        "address": "492 Alexander Dr",
        "suburb": "Malaga",
        "price": 223.5,
        "lat": -31.863512,
        "lng": 115.879279
      },
      {
        "station": "Shell Reddy Express Middle Swan",
        "brand": "Reddy Express",
        "address": "Lot 46 Great Northern Hwy",
        "suburb": "Middle Swan",
        "price": 223.5,
        "lat": -31.874449,
        "lng": 116.011086
      },
      {
        "station": "Shell Reddy Express Wembley",
        "brand": "Reddy Express",
        "address": "337 Cambridge St",
        "suburb": "Wembley",
        "price": 223.5,
        "lat": -31.941023,
        "lng": 115.811858
      },
      {
        "station": "Shell Reddy Express Cloverdale",
        "brand": "Reddy Express",
        "address": "223 Belmont Ave",
        "suburb": "Cloverdale",
        "price": 223.5,
        "lat": -31.965057,
        "lng": 115.933164
      },
      {
        "station": "Shell Reddy Express Maddington",
        "brand": "Reddy Express",
        "address": "117 Burslem Dr",
        "suburb": "Maddington",
        "price": 223.5,
        "lat": -32.055352,
        "lng": 115.979908
      },
      {
        "station": "Shell Reddy Express Willetton",
        "brand": "Reddy Express",
        "address": "239-247 High Rd",
        "suburb": "Willetton",
        "price": 223.5,
        "lat": -32.039109,
        "lng": 115.893756
      },
      {
        "station": "Shell Reddy Express Forrestfield",
        "brand": "Reddy Express",
        "address": "2 Strelitzia Ave",
        "suburb": "Forrestfield",
        "price": 223.5,
        "lat": -31.988699,
        "lng": 116.010746
      },
      {
        "station": "Shell Reddy Express Bunbury Outbound",
        "brand": "Reddy Express",
        "address": "9850 Forrest Hwy",
        "suburb": "Vittoria",
        "price": 223.5,
        "lat": -33.334477,
        "lng": 115.682266
      },
      {
        "station": "Shell Reddy Express Fremantle",
        "brand": "Reddy Express",
        "address": "101 Hampton Rd",
        "suburb": "Fremantle",
        "price": 223.5,
        "lat": -32.063235,
        "lng": 115.756663
      },
      {
        "station": "Shell Reddy Express Perth",
        "brand": "Reddy Express",
        "address": "480 William St",
        "suburb": "Perth",
        "price": 223.5,
        "lat": -31.940953,
        "lng": 115.863904
      },
      {
        "station": "Shell Reddy Express Brentwood",
        "brand": "Reddy Express",
        "address": "71 Cranford Ave",
        "suburb": "Brentwood",
        "price": 223.5,
        "lat": -32.041448,
        "lng": 115.848868
      },
      {
        "station": "Shell Reddy Express Bicton",
        "brand": "Reddy Express",
        "address": "394 Canning Hwy",
        "suburb": "Bicton",
        "price": 223.5,
        "lat": -32.03413,
        "lng": 115.792776
      },
      {
        "station": "Shell Reddy Express Northam",
        "brand": "Reddy Express",
        "address": "10 Beamish Ave",
        "suburb": "Northam",
        "price": 223.5,
        "lat": -31.657795,
        "lng": 116.669547
      },
      {
        "station": "Shell Reddy Express Wangara",
        "brand": "Reddy Express",
        "address": "1 Niche Pde",
        "suburb": "Wangara",
        "price": 223.5,
        "lat": -31.791963,
        "lng": 115.852478
      },
      {
        "station": "Shell Reddy Express Ocean Reef",
        "brand": "Reddy Express",
        "address": "6 Marina Bvd",
        "suburb": "Ocean Reef",
        "price": 223.5,
        "lat": -31.76744,
        "lng": 115.749421
      },
      {
        "station": "Shell Reddy Express Ellenbrook",
        "brand": "Reddy Express",
        "address": "3 Goodwood Cres",
        "suburb": "Ellenbrook",
        "price": 223.5,
        "lat": -31.775,
        "lng": 115.96
      },
      {
        "station": "Shell Reddy Express Edgewater",
        "brand": "Reddy Express",
        "address": "57 Joondalup Dr",
        "suburb": "Edgewater",
        "price": 223.5,
        "lat": -31.769548,
        "lng": 115.778804
      },
      {
        "station": "Shell Reddy Express Bayswater",
        "brand": "Reddy Express",
        "address": "34 Jackson St",
        "suburb": "Bayswater",
        "price": 223.5,
        "lat": -31.906734,
        "lng": 115.92665
      },
      {
        "station": "Shell Reddy Express Dianella",
        "brand": "Reddy Express",
        "address": "67 Walter Rd West",
        "suburb": "Dianella",
        "price": 223.5,
        "lat": -31.905801,
        "lng": 115.8827
      },
      {
        "station": "Shell Reddy Express Brighton",
        "brand": "Reddy Express",
        "address": "61 Butler Bvd",
        "suburb": "Butler",
        "price": 223.5,
        "lat": -31.638264,
        "lng": 115.69551
      },
      {
        "station": "Shell Reddy Express Mount Pleasant",
        "brand": "Reddy Express",
        "address": "1 The Esplanade",
        "suburb": "Mount Pleasant",
        "price": 223.5,
        "lat": -32.012511,
        "lng": 115.850077
      },
      {
        "station": "OTR Como",
        "brand": "Shell",
        "address": "73 Manning Rd",
        "suburb": "Como",
        "price": 223.5,
        "lat": -32.012091,
        "lng": 115.864427
      },
      {
        "station": "OTR Perth Pier Street",
        "brand": "Shell",
        "address": "17 Brisbane St",
        "suburb": "Perth",
        "price": 223.5,
        "lat": -31.944162,
        "lng": 115.86904
      },
      {
        "station": "Shell Reddy Express Bibra Lake",
        "brand": "Reddy Express",
        "address": "1 Timberyard Way",
        "suburb": "Bibra Lake",
        "price": 223.5,
        "lat": -32.116954,
        "lng": 115.807471
      },
      {
        "station": "Shell Reddy Express Canning Vale",
        "brand": "Reddy Express",
        "address": "280 Bannister Rd",
        "suburb": "Canning Vale",
        "price": 223.5,
        "lat": -32.070349,
        "lng": 115.895596
      },
      {
        "station": "Shell Reddy Express Mount Lawley",
        "brand": "Reddy Express",
        "address": "253 Walcott St",
        "suburb": "North Perth",
        "price": 223.5,
        "lat": -31.923821,
        "lng": 115.859281
      },
      {
        "station": "Shell Reddy Express Clarkson",
        "brand": "Reddy Express",
        "address": "36 Ocean Keys Bvd",
        "suburb": "Clarkson",
        "price": 223.5,
        "lat": -31.691894,
        "lng": 115.716118
      },
      {
        "station": "Shell Reddy Express Brookdale",
        "brand": "Reddy Express",
        "address": "1256 Armadale Rd",
        "suburb": "Armadale",
        "price": 223.5,
        "lat": -32.147485,
        "lng": 115.985303
      },
      {
        "station": "Shell Reddy Express Armadale",
        "brand": "Reddy Express",
        "address": "269 South Western Hwy",
        "suburb": "Armadale",
        "price": 223.5,
        "lat": -32.168864,
        "lng": 116.014864
      },
      {
        "station": "Shell Reddy Express Osborne Park",
        "brand": "Reddy Express",
        "address": "11 Roberts St West",
        "suburb": "Osborne Park",
        "price": 223.5,
        "lat": -31.907535,
        "lng": 115.819092
      },
      {
        "station": "Shell Reddy Express Southern River",
        "brand": "Reddy Express",
        "address": "216 Lakey St",
        "suburb": "Southern River",
        "price": 223.5,
        "lat": -32.103521,
        "lng": 115.934721
      },
      {
        "station": "S24 Bull Creek",
        "brand": "Shell",
        "address": "83 Wheatley Dr",
        "suburb": "Bull Creek",
        "price": 223.5,
        "lat": -32.057051,
        "lng": 115.865845
      },
      {
        "station": "Shell Reddy Express Karawara",
        "brand": "Reddy Express",
        "address": "222 Manning Rd",
        "suburb": "Karawara",
        "price": 223.5,
        "lat": -32.011927,
        "lng": 115.884145
      },
      {
        "station": "Shell Reddy Express Mosman Park",
        "brand": "Reddy Express",
        "address": "582 Stirling Hwy",
        "suburb": "Mosman Park",
        "price": 223.5,
        "lat": -32.005184,
        "lng": 115.759304
      },
      {
        "station": "Shell Reddy Express Leeming",
        "brand": "Reddy Express",
        "address": "51 Farrington St",
        "suburb": "Leeming",
        "price": 223.5,
        "lat": -32.079015,
        "lng": 115.858415
      },
      {
        "station": "Shell Reddy Express Banksia Grove",
        "brand": "Reddy Express",
        "address": "1001 Joondalup Dr",
        "suburb": "Banksia Grove",
        "price": 223.5,
        "lat": -31.70653,
        "lng": 115.802679
      },
      {
        "station": "Shell Reddy Express South Perth",
        "brand": "Reddy Express",
        "address": "3 Canning Hwy",
        "suburb": "South Perth",
        "price": 223.5,
        "lat": -31.974773,
        "lng": 115.881635
      },
      {
        "station": "OTR Bunbury",
        "brand": "Shell",
        "address": "92 Blair St",
        "suburb": "Bunbury",
        "price": 223.5,
        "lat": -33.33,
        "lng": 115.641575
      },
      {
        "station": "S24 Crystal Brook (Lesmurdie)",
        "brand": "Shell",
        "address": "7 Welshpool Rd East",
        "suburb": "Lesmurdie",
        "price": 223.5,
        "lat": -32.012254,
        "lng": 116.035305
      },
      {
        "station": "Shell Reddy Express Westfield",
        "brand": "Reddy Express",
        "address": "88 Champion Dr",
        "suburb": "Seville Grove",
        "price": 223.5,
        "lat": -32.130396,
        "lng": 116.000966
      },
      {
        "station": "Shell Reddy Express Kwinana Beach",
        "brand": "Reddy Express",
        "address": "4 Beach St",
        "suburb": "Kwinana Beach",
        "price": 223.5,
        "lat": -32.243693,
        "lng": 115.776587
      },
      {
        "station": "Shell Reddy Express Myaree",
        "brand": "Reddy Express",
        "address": "69 North Lake Rd",
        "suburb": "Myaree",
        "price": 223.5,
        "lat": -32.039649,
        "lng": 115.815283
      },
      {
        "station": "Shell Reddy Express Waikiki",
        "brand": "Reddy Express",
        "address": "1-9 Gnangara Dr",
        "suburb": "Waikiki",
        "price": 223.5,
        "lat": -32.315121,
        "lng": 115.753183
      },
      {
        "station": "Shell Reddy Express Bull Creek",
        "brand": "Reddy Express",
        "address": "44 Benningfield Rd",
        "suburb": "Bull Creek",
        "price": 223.5,
        "lat": -32.063327,
        "lng": 115.857827
      },
      {
        "station": "Shell Reddy Express Casuarina",
        "brand": "Reddy Express",
        "address": "1 Johnson Rd",
        "suburb": "Bertram",
        "price": 223.5,
        "lat": -32.232326,
        "lng": 115.848215
      },
      {
        "station": "S24 Redcliffe",
        "brand": "Shell",
        "address": "419 Great Eastern Hwy",
        "suburb": "Redcliffe",
        "price": 223.5,
        "lat": -31.930469,
        "lng": 115.944728
      },
      {
        "station": "Shell Reddy Express Bentley",
        "brand": "Reddy Express",
        "address": "1128 Albany Hwy",
        "suburb": "Bentley",
        "price": 223.5,
        "lat": -32.000633,
        "lng": 115.918698
      },
      {
        "station": "Shell Reddy Express Dunsborough",
        "brand": "Reddy Express",
        "address": "64 Dunn Bay Rd",
        "suburb": "Dunsborough",
        "price": 223.5,
        "lat": -33.616785,
        "lng": 115.102669
      },
      {
        "station": "Shell Reddy Express Margaret River",
        "brand": "Reddy Express",
        "address": "77 Bussell Hwy",
        "suburb": "Margaret River",
        "price": 223.5,
        "lat": -33.946859,
        "lng": 115.074659
      },
      {
        "station": "S24 Forrestfield",
        "brand": "Shell",
        "address": "155 Hale Rd",
        "suburb": "Forrestfield",
        "price": 223.5,
        "lat": -31.990555,
        "lng": 116.000064
      },
      {
        "station": "Shell Reddy Express Beeliar",
        "brand": "Reddy Express",
        "address": "8 Durnin Ave",
        "suburb": "Beeliar",
        "price": 223.5,
        "lat": -32.128112,
        "lng": 115.798736
      },
      {
        "station": "Shell Reddy Express Wanneroo Pearsall",
        "brand": "Reddy Express",
        "address": "621 Wanneroo Rd",
        "suburb": "Wanneroo",
        "price": 223.5,
        "lat": -31.780031,
        "lng": 115.808184
      },
      {
        "station": "Vibe Kalamunda",
        "brand": "Vibe",
        "address": "7 Mead St",
        "suburb": "Kalamunda",
        "price": 223.7,
        "lat": -31.97362,
        "lng": 116.059448
      },
      {
        "station": "United Kewdale Truck Stop",
        "brand": "United",
        "address": "410-412 Orrong Rd",
        "suburb": "Kewdale",
        "price": 223.9,
        "lat": -31.990047,
        "lng": 115.939258
      },
      {
        "station": "Smart Mart Pure Convenience - Flores Rd",
        "brand": "BP",
        "address": "280 Fourth St",
        "suburb": "Wonthella",
        "price": 223.9,
        "lat": -28.7642,
        "lng": 114.633683
      },
      {
        "station": "7-Eleven Cockburn Central",
        "brand": "7-Eleven",
        "address": "814 North Lake Rd",
        "suburb": "Cockburn Central",
        "price": 223.9,
        "lat": -32.120001,
        "lng": 115.846548
      },
      {
        "station": "BP Cowaramup",
        "brand": "BP",
        "address": "1 Roy Earl Dr",
        "suburb": "Cowaramup",
        "price": 223.9,
        "lat": -33.855134,
        "lng": 115.100534
      },
      {
        "station": "EG Ampol Banksia Grove",
        "brand": "EG Ampol",
        "address": "133 Ghost Gum Bvd",
        "suburb": "Banksia Grove",
        "price": 223.9,
        "lat": -31.70446,
        "lng": 115.803863
      },
      {
        "station": "Fruit Barn",
        "brand": "Liberty",
        "address": "7 South Western Hwy",
        "suburb": "Donnybrook",
        "price": 223.9,
        "lat": -33.569035,
        "lng": 115.821991
      },
      {
        "station": "EG Ampol Osborne Park",
        "brand": "EG Ampol",
        "address": "401 Scarborough Beach Rd",
        "suburb": "Osborne Park",
        "price": 223.9,
        "lat": -31.91058,
        "lng": 115.81401
      },
      {
        "station": "EG Ampol Mirrabooka",
        "brand": "EG Ampol",
        "address": "53 Yirrigan Dr",
        "suburb": "Mirrabooka",
        "price": 223.9,
        "lat": -31.873567,
        "lng": 115.861407
      },
      {
        "station": "EG Ampol South Lake",
        "brand": "EG Ampol",
        "address": "752 North Lake Rd",
        "suburb": "South Lake",
        "price": 223.9,
        "lat": -32.115172,
        "lng": 115.837032
      },
      {
        "station": "EG Ampol Aveley",
        "brand": "EG Ampol",
        "address": "317 Millhouse Rd",
        "suburb": "Aveley",
        "price": 223.9,
        "lat": -31.777467,
        "lng": 115.987368
      },
      {
        "station": "EG Ampol Greenwood",
        "brand": "EG Ampol",
        "address": "37 Canham Way",
        "suburb": "Greenwood",
        "price": 223.9,
        "lat": -31.822072,
        "lng": 115.820539
      },
      {
        "station": "EG Ampol Port Kennedy",
        "brand": "EG Ampol",
        "address": "12 Saltaire Way",
        "suburb": "Port Kennedy",
        "price": 223.9,
        "lat": -32.373781,
        "lng": 115.75592
      },
      {
        "station": "Burk Williams",
        "brand": "Burk",
        "address": "24 Albany Hwy",
        "suburb": "Williams",
        "price": 223.9,
        "lat": -33.029031,
        "lng": 116.879548
      },
      {
        "station": "Maisey Fuels Rudds Gully",
        "brand": "Maisey Fuels",
        "address": "512 Rudds Gully Rd",
        "suburb": "Narngulu",
        "price": 224.5,
        "lat": -28.823606,
        "lng": 114.690221
      },
      {
        "station": "Maisey Fuels Flores Road",
        "brand": "Maisey Fuels",
        "address": "83 Flores Rd",
        "suburb": "Webberton",
        "price": 224.5,
        "lat": -28.756027,
        "lng": 114.630711
      },
      {
        "station": "BP Picton Wetherley Dr",
        "brand": "BP",
        "address": "24 Wetherly Dr",
        "suburb": "Picton",
        "price": 224.9,
        "lat": -33.344909,
        "lng": 115.708573
      },
      {
        "station": "BP Parklands",
        "brand": "BP",
        "address": "85 Forrest Ave",
        "suburb": "South Bunbury",
        "price": 224.9,
        "lat": -33.341493,
        "lng": 115.650141
      },
      {
        "station": "BP Busselton",
        "brand": "BP",
        "address": "26 Albert St",
        "suburb": "Busselton",
        "price": 224.9,
        "lat": -33.652488,
        "lng": 115.344349
      },
      {
        "station": "BP South Bunbury",
        "brand": "BP",
        "address": "188 Spencer St",
        "suburb": "South Bunbury",
        "price": 224.9,
        "lat": -33.345254,
        "lng": 115.640814
      },
      {
        "station": "BP Donnybrook",
        "brand": "BP",
        "address": "15 South Western Hwy",
        "suburb": "Donnybrook",
        "price": 224.9,
        "lat": -33.57079,
        "lng": 115.822948
      },
      {
        "station": "Astron Boulder Kalgoorlie",
        "brand": "Astron",
        "address": "26 Davis St",
        "suburb": "Boulder",
        "price": 224.9,
        "lat": -30.778416,
        "lng": 121.488963
      },
      {
        "station": "Liberty Kalgoorlie",
        "brand": "Liberty",
        "address": "69-71 Wilson St",
        "suburb": "Kalgoorlie",
        "price": 225.5,
        "lat": -30.752968,
        "lng": 121.475421
      },
      {
        "station": "Geographe Petroleum Margaret River",
        "brand": "Liberty",
        "address": "12 Auger Way",
        "suburb": "Margaret River",
        "price": 225.5,
        "lat": -33.96608,
        "lng": 115.071736
      },
      {
        "station": "Gull Waterloo",
        "brand": "Gull",
        "address": "14270 South Western Hwy",
        "suburb": "Waterloo",
        "price": 225.7,
        "lat": -33.323631,
        "lng": 115.770208
      },
      {
        "station": "Vibe Spearwood",
        "brand": "Vibe",
        "address": "333 Rockingham Rd",
        "suburb": "Spearwood",
        "price": 225.7,
        "lat": -32.105033,
        "lng": 115.782419
      },
      {
        "station": "Vibe Placid Ark Roadhouse",
        "brand": "Vibe",
        "address": "6947 South Western Hwy",
        "suburb": "Coolup",
        "price": 225.7,
        "lat": -32.727044,
        "lng": 115.881859
      },
      {
        "station": "De Rosa's Highway Motors",
        "brand": "Independent",
        "address": "8222 South Western Hwy",
        "suburb": "Waroona",
        "price": 225.9,
        "lat": -32.835836,
        "lng": 115.917882
      },
      {
        "station": "United Myaree",
        "brand": "United",
        "address": "182 Leach Hwy",
        "suburb": "Myaree",
        "price": 225.9,
        "lat": -32.046212,
        "lng": 115.812611
      },
      {
        "station": "BP Roadhouse Dongara",
        "brand": "BP",
        "address": "30373 Brand Hwy",
        "suburb": "Dongara",
        "price": 225.9,
        "lat": -29.251818,
        "lng": 114.940463
      },
      {
        "station": "NightOwl Shell Redcliffe",
        "brand": "Shell",
        "address": "443 Great Eastern Hwy",
        "suburb": "Redcliffe",
        "price": 225.9,
        "lat": -31.929508,
        "lng": 115.945947
      },
      {
        "station": "NightOwl Shell Maddington",
        "brand": "Shell",
        "address": "1 Davison St",
        "suburb": "Maddington",
        "price": 225.9,
        "lat": -32.045398,
        "lng": 115.988733
      },
      {
        "station": "NightOwl Shell Ravenswood",
        "brand": "Shell",
        "address": "6 Beacham Rd",
        "suburb": "Ravenswood",
        "price": 225.9,
        "lat": -32.608301,
        "lng": 115.844974
      },
      {
        "station": "NightOwl Shell Bellevue",
        "brand": "Shell",
        "address": "49 Great Eastern Hwy",
        "suburb": "Bellevue",
        "price": 225.9,
        "lat": -31.895576,
        "lng": 116.032806
      },
      {
        "station": "Ampol Foodary Busselton",
        "brand": "Ampol",
        "address": "115 Strelly St",
        "suburb": "Busselton",
        "price": 225.9,
        "lat": -33.667563,
        "lng": 115.35
      },
      {
        "station": "Ampol Picton Depot With Front",
        "brand": "Ampol",
        "address": "1 Wimbridge Rd",
        "suburb": "Picton",
        "price": 225.9,
        "lat": -33.348833,
        "lng": 115.699093
      },
      {
        "station": "United Perth Airport Truck Stop",
        "brand": "United",
        "address": "8 Paltridge Rd",
        "suburb": "Perth Airport",
        "price": 225.9,
        "lat": -31.956366,
        "lng": 115.969749
      },
      {
        "station": "NightOwl BP Mandurah",
        "brand": "BP",
        "address": "304 Pinjarra Rd",
        "suburb": "Mandurah",
        "price": 225.9,
        "lat": -32.535819,
        "lng": 115.737541
      },
      {
        "station": "Dardanup Garage & Service Station",
        "brand": "Independent",
        "address": "11 Charlotte St",
        "suburb": "Dardanup",
        "price": 226.0,
        "lat": -33.399501,
        "lng": 115.754498
      },
      {
        "station": "Phoenix Barlee St",
        "brand": "Independent",
        "address": "31 Barlee St",
        "suburb": "Busselton",
        "price": 226.0,
        "lat": -33.660561,
        "lng": 115.345856
      },
      {
        "station": "Dunning's Thompsons Garage",
        "brand": "Shell",
        "address": "127 Giblett St",
        "suburb": "Manjimup",
        "price": 226.5,
        "lat": -34.239259,
        "lng": 116.147427
      },
      {
        "station": "Dunning's Newman",
        "brand": "Shell",
        "address": "21 Willis St",
        "suburb": "Newman",
        "price": 226.5,
        "lat": -23.37047,
        "lng": 119.732524
      },
      {
        "station": "Dunning's Manjimup",
        "brand": "Dunning's",
        "address": "5 Margerison St",
        "suburb": "Manjimup",
        "price": 226.5,
        "lat": -34.261143,
        "lng": 116.148679
      },
      {
        "station": "Ampol Binningup",
        "brand": "Ampol",
        "address": "21 Coronation Dr",
        "suburb": "Binningup",
        "price": 226.9,
        "lat": -33.149621,
        "lng": 115.688353
      },
      {
        "station": "United Albany Central",
        "brand": "United",
        "address": "309 Albany Hwy",
        "suburb": "Mount Melville",
        "price": 226.9,
        "lat": -35.005762,
        "lng": 117.866879
      },
      {
        "station": "Vibe Bridgetown",
        "brand": "Vibe",
        "address": "169 Hampton St",
        "suburb": "Bridgetown",
        "price": 226.9,
        "lat": -33.957232,
        "lng": 116.137001
      },
      {
        "station": "Ampol Foodary Wonthella",
        "brand": "Ampol",
        "address": "40 North West Coastal Hwy",
        "suburb": "Wonthella",
        "price": 226.9,
        "lat": -28.778125,
        "lng": 114.626588
      },
      {
        "station": "Metro Geraldton",
        "brand": "Metro Petroleum",
        "address": "1 Fortyn Ct",
        "suburb": "Mahomets Flats",
        "price": 226.9,
        "lat": -28.792328,
        "lng": 114.616974
      },
      {
        "station": "FDWA Cunderdin",
        "brand": "Independent",
        "address": "67 Lundy Ave",
        "suburb": "Cunderdin",
        "price": 227.0,
        "lat": -31.6497,
        "lng": 117.241671
      },
      {
        "station": "Liberty Karratha",
        "brand": "Liberty",
        "address": "2 Cockatoo St",
        "suburb": "Nickol",
        "price": 227.5,
        "lat": -20.746797,
        "lng": 116.808697
      },
      {
        "station": "United Hamilton Hill",
        "brand": "United",
        "address": "9 Winterfold Rd",
        "suburb": "Hamilton Hill",
        "price": 227.9,
        "lat": -32.074926,
        "lng": 115.780931
      },
      {
        "station": "BP Dunsborough",
        "brand": "BP",
        "address": "238 Naturaliste Tce",
        "suburb": "Dunsborough",
        "price": 227.9,
        "lat": -33.615716,
        "lng": 115.106019
      },
      {
        "station": "United Denmark",
        "brand": "United",
        "address": "45 South Coast Hwy",
        "suburb": "Denmark",
        "price": 227.9,
        "lat": -34.960883,
        "lng": 117.353996
      },
      {
        "station": "BP Augusta",
        "brand": "BP",
        "address": "64-66 Blackwood Ave",
        "suburb": "Augusta",
        "price": 227.9,
        "lat": -34.315893,
        "lng": 115.159351
      },
      {
        "station": "Ampol Foodary Williams",
        "brand": "Ampol",
        "address": "56 Albany Hwy",
        "suburb": "Williams",
        "price": 227.9,
        "lat": -33.023352,
        "lng": 116.878086
      },
      {
        "station": "EG Ampol Floreat",
        "brand": "EG Ampol",
        "address": "5 Howtree Pl",
        "suburb": "Floreat",
        "price": 227.9,
        "lat": -31.93672,
        "lng": 115.793911
      },
      {
        "station": "EG Ampol Dianella",
        "brand": "EG Ampol",
        "address": "372 Grand Prom",
        "suburb": "Dianella",
        "price": 227.9,
        "lat": -31.89674,
        "lng": 115.871865
      },
      {
        "station": "EG Ampol Maddington West",
        "brand": "EG Ampol",
        "address": "207 Burslem Dr",
        "suburb": "Maddington",
        "price": 227.9,
        "lat": -32.049324,
        "lng": 115.977502
      },
      {
        "station": "EG Ampol Morley Galleria",
        "brand": "EG Ampol",
        "address": "60 Russell St",
        "suburb": "Morley",
        "price": 227.9,
        "lat": -31.896262,
        "lng": 115.895092
      },
      {
        "station": "EG Ampol Canning Vale",
        "brand": "EG Ampol",
        "address": "15 Sarah Cl",
        "suburb": "Canning Vale",
        "price": 227.9,
        "lat": -32.072873,
        "lng": 115.925469
      },
      {
        "station": "EG Ampol Ballajura",
        "brand": "EG Ampol",
        "address": "5 Hamelin Dr",
        "suburb": "Ballajura",
        "price": 227.9,
        "lat": -31.847444,
        "lng": 115.906385
      },
      {
        "station": "EG Ampol Southern River",
        "brand": "EG Ampol",
        "address": "466 Warton Rd",
        "suburb": "Southern River",
        "price": 227.9,
        "lat": -32.096399,
        "lng": 115.935881
      },
      {
        "station": "EG Ampol Ellenbrook",
        "brand": "EG Ampol",
        "address": "11 Main St",
        "suburb": "Ellenbrook",
        "price": 227.9,
        "lat": -31.780889,
        "lng": 115.969189
      },
      {
        "station": "EG Ampol South Fremantle",
        "brand": "EG Ampol",
        "address": "219 Hampton Rd",
        "suburb": "South Fremantle",
        "price": 227.9,
        "lat": -32.073721,
        "lng": 115.759177
      },
      {
        "station": "EG Ampol Warnbro",
        "brand": "EG Ampol",
        "address": "202 Warnbro Sound Ave",
        "suburb": "Warnbro",
        "price": 227.9,
        "lat": -32.345819,
        "lng": 115.761444
      },
      {
        "station": "EG Ampol Whitfords",
        "brand": "EG Ampol",
        "address": "470 Whitfords Ave",
        "suburb": "Hillarys",
        "price": 227.9,
        "lat": -31.796683,
        "lng": 115.745505
      },
      {
        "station": "EG Ampol Mandurah",
        "brand": "EG Ampol",
        "address": "10-12 Magenta Tce",
        "suburb": "Mandurah",
        "price": 227.9,
        "lat": -32.509613,
        "lng": 115.7409
      },
      {
        "station": "EG Ampol Joondalup Winton Road",
        "brand": "EG Ampol",
        "address": "189 Winton Rd",
        "suburb": "Joondalup",
        "price": 227.9,
        "lat": -31.74449,
        "lng": 115.763128
      },
      {
        "station": "EG Ampol Mandurah Forum",
        "brand": "EG Ampol",
        "address": "330 Pinjarra Rd",
        "suburb": "Mandurah",
        "price": 227.9,
        "lat": -32.536347,
        "lng": 115.740481
      },
      {
        "station": "EG Ampol Currambine Marketplace",
        "brand": "EG Ampol",
        "address": "1244 Marmion Ave",
        "suburb": "Currambine",
        "price": 227.9,
        "lat": -31.742211,
        "lng": 115.740365
      },
      {
        "station": "EG Ampol Falcon",
        "brand": "EG Ampol",
        "address": "651 Old Coast Rd",
        "suburb": "Falcon",
        "price": 227.9,
        "lat": -32.584943,
        "lng": 115.660354
      },
      {
        "station": "EG Ampol Alkimos",
        "brand": "EG Ampol",
        "address": "11 Shorehaven Bvd",
        "suburb": "Alkimos",
        "price": 227.9,
        "lat": -31.601902,
        "lng": 115.680898
      },
      {
        "station": "EG Ampol Northam",
        "brand": "EG Ampol",
        "address": "86 Wellington St",
        "suburb": "Northam",
        "price": 227.9,
        "lat": -31.655128,
        "lng": 116.671585
      },
      {
        "station": "EG Ampol Brabham",
        "brand": "EG Ampol",
        "address": "3 Marvel Ent",
        "suburb": "Brabham",
        "price": 227.9,
        "lat": -31.832944,
        "lng": 115.966916
      },
      {
        "station": "Caltex Langford",
        "brand": "Caltex",
        "address": "230-234 Nicholson Rd",
        "suburb": "Langford",
        "price": 227.9,
        "lat": -32.04723,
        "lng": 115.932375
      },
      {
        "station": "Caltex Kelmscott",
        "brand": "Caltex",
        "address": "2907 Albany Hwy",
        "suburb": "Kelmscott",
        "price": 227.9,
        "lat": -32.118708,
        "lng": 116.016589
      },
      {
        "station": "BP Roadhouse Bridgetown",
        "brand": "BP",
        "address": "43 Hampton St",
        "suburb": "Bridgetown",
        "price": 228.9,
        "lat": -33.963182,
        "lng": 116.135457
      },
      {
        "station": "BP Manjimup",
        "brand": "BP",
        "address": "96 Giblett St",
        "suburb": "Manjimup",
        "price": 228.9,
        "lat": -34.238738,
        "lng": 116.148213
      },
      {
        "station": "Ampol Albany Diesel Stop",
        "brand": "Ampol",
        "address": "634 Menang Dr",
        "suburb": "Willyung",
        "price": 228.9,
        "lat": -34.959873,
        "lng": 117.886725
      },
      {
        "station": "Caltex Lakes Road Nambeelup",
        "brand": "Caltex",
        "address": "6 Dollyup St",
        "suburb": "Stake Hill",
        "price": 228.9,
        "lat": -32.51067,
        "lng": 115.815529
      },
      {
        "station": "BP Highgate",
        "brand": "BP",
        "address": "342 Beaufort St",
        "suburb": "Perth",
        "price": 229.0,
        "lat": -31.942556,
        "lng": 115.867359
      },
      {
        "station": "Petro Fuels Cataby",
        "brand": "Ampol",
        "address": "10513 Brand Hwy",
        "suburb": "Cataby",
        "price": 229.5,
        "lat": -30.753218,
        "lng": 115.558623
      },
      {
        "station": "Liberty Cataby",
        "brand": "Liberty",
        "address": "10805 Brand Hwy",
        "suburb": "Cataby",
        "price": 229.5,
        "lat": -30.735706,
        "lng": 115.539091
      },
      {
        "station": "Shell Reddy Express Albany Orana",
        "brand": "Reddy Express",
        "address": "342 Albany Hwy",
        "suburb": "Orana",
        "price": 229.5,
        "lat": -35.002367,
        "lng": 117.865131
      },
      {
        "station": "Shell Reddy Express Collie",
        "brand": "Reddy Express",
        "address": "57 Johnston St",
        "suburb": "Collie",
        "price": 229.5,
        "lat": -33.357345,
        "lng": 116.151939
      },
      {
        "station": "Shell Reddy Express Meekatharra Roadhouse",
        "brand": "Reddy Express",
        "address": "Lot 821 Main St",
        "suburb": "Meekatharra",
        "price": 229.5,
        "lat": -26.598382,
        "lng": 118.491349
      },
      {
        "station": "Shell Reddy Express Boulder",
        "brand": "Reddy Express",
        "address": "35 Frank St",
        "suburb": "Boulder",
        "price": 229.5,
        "lat": -30.767542,
        "lng": 121.484457
      },
      {
        "station": "Shell Reddy Express Esperance",
        "brand": "Reddy Express",
        "address": "25 Andrew St",
        "suburb": "Esperance",
        "price": 229.5,
        "lat": -33.861134,
        "lng": 121.890607
      },
      {
        "station": "X Convenience Alkimos",
        "brand": "X Convenience",
        "address": "58 Montana Cres",
        "suburb": "Alkimos",
        "price": 229.5,
        "lat": -31.621433,
        "lng": 115.688754
      },
      {
        "station": "X Convenience Erskine",
        "brand": "X Convenience",
        "address": "2 Wattleglen Ave",
        "suburb": "Erskine",
        "price": 229.5,
        "lat": -32.564987,
        "lng": 115.682057
      },
      {
        "station": "Dunning's Karratha",
        "brand": "Liberty",
        "address": "Lot 1437 Warambie Rd",
        "suburb": "Karratha",
        "price": 229.5,
        "lat": -20.7328332,
        "lng": 116.8434104
      },
      {
        "station": "Shell Reddy Express Tarcoola",
        "brand": "Reddy Express",
        "address": "2 Fortyn Ct",
        "suburb": "Mahomets Flats",
        "price": 229.5,
        "lat": -28.791355,
        "lng": 114.616223
      },
      {
        "station": "Shell Reddy Express Wonthella",
        "brand": "Reddy Express",
        "address": "115 North West Coastal Hwy",
        "suburb": "Wonthella",
        "price": 229.5,
        "lat": -28.76928,
        "lng": 114.624398
      },
      {
        "station": "Vibe Treendale",
        "brand": "Vibe",
        "address": "157 Grand Ent",
        "suburb": "Australind",
        "price": 229.7,
        "lat": -33.283775,
        "lng": 115.747767
      },
      {
        "station": "Vibe Bunbury East",
        "brand": "Vibe",
        "address": "13 Picton Rd",
        "suburb": "East Bunbury",
        "price": 229.7,
        "lat": -33.345646,
        "lng": 115.660229
      },
      {
        "station": "Refuel Australia - Sunset Geraldton",
        "brand": "Ampol",
        "address": "620 Chapman Rd",
        "suburb": "Glenfield",
        "price": 229.8,
        "lat": -28.719676,
        "lng": 114.627249
      },
      {
        "station": "Refuel Australia - Geraldton Flores Road",
        "brand": "Ampol",
        "address": "120 Flores Rd",
        "suburb": "Webberton",
        "price": 229.8,
        "lat": -28.75148,
        "lng": 114.62853
      },
      {
        "station": "Refuel Australia - Geraldton Willcock Drive",
        "brand": "Ampol",
        "address": "Cnr John Willcock Link & Portway",
        "suburb": "West End",
        "price": 229.8,
        "lat": -28.783057,
        "lng": 114.593827
      },
      {
        "station": "Petro Fuels Denmark",
        "brand": "Petro Fuels",
        "address": "69 South Coast Hwy",
        "suburb": "Denmark",
        "price": 229.9,
        "lat": -34.96176,
        "lng": 117.35116
      },
      {
        "station": "7-Eleven Two Rocks",
        "brand": "7-Eleven",
        "address": "2 Dunraven Rd",
        "suburb": "Two Rocks",
        "price": 229.9,
        "lat": -31.49097,
        "lng": 115.597517
      },
      {
        "station": "OMG Metro Maddington",
        "brand": "OMG Metro",
        "address": "134 Westfield St",
        "suburb": "Maddington",
        "price": 229.9,
        "lat": -32.053507,
        "lng": 116.000806
      },
      {
        "station": "BP Allway",
        "brand": "BP",
        "address": "35 Albany Hwy",
        "suburb": "Albany",
        "price": 229.9,
        "lat": -35.020486,
        "lng": 117.881858
      },
      {
        "station": "BP Applecross",
        "brand": "BP",
        "address": "848 Canning Hwy",
        "suburb": "Applecross",
        "price": 229.9,
        "lat": -32.01507,
        "lng": 115.84318
      },
      {
        "station": "BP 2go Australind",
        "brand": "BP",
        "address": "80 Old Coast Rd",
        "suburb": "Australind",
        "price": 229.9,
        "lat": -33.279353,
        "lng": 115.713998
      },
      {
        "station": "BP Ballajura",
        "brand": "BP",
        "address": "2 Illawarra Cres North",
        "suburb": "Ballajura",
        "price": 229.9,
        "lat": -31.826611,
        "lng": 115.877278
      },
      {
        "station": "BP Connect Ascot (WA)",
        "brand": "BP",
        "address": "210 Great Eastern Hwy",
        "suburb": "Ascot",
        "price": 229.9,
        "lat": -31.940482,
        "lng": 115.927498
      },
      {
        "station": "BP Koondoola",
        "brand": "BP",
        "address": "28 Koondoola Ave",
        "suburb": "Koondoola",
        "price": 229.9,
        "lat": -31.841924,
        "lng": 115.858276
      },
      {
        "station": "BP Maida Vale",
        "brand": "BP",
        "address": "269 Kalamunda Rd",
        "suburb": "Maida Vale",
        "price": 229.9,
        "lat": -31.953759,
        "lng": 116.024102
      },
      {
        "station": "BP 2go Silver Sands",
        "brand": "BP",
        "address": "183-187 Mandurah Tce",
        "suburb": "Mandurah",
        "price": 229.9,
        "lat": -32.519882,
        "lng": 115.731281
      },
      {
        "station": "BP 2go Morrison Road",
        "brand": "BP",
        "address": "228 Morrison Rd",
        "suburb": "Midvale",
        "price": 229.9,
        "lat": -31.886395,
        "lng": 116.030977
      },
      {
        "station": "BP Huntingdale",
        "brand": "BP",
        "address": "68 Warton Rd",
        "suburb": "Huntingdale",
        "price": 229.9,
        "lat": -32.071421,
        "lng": 115.966472
      },
      {
        "station": "BP Nookenburra",
        "brand": "BP",
        "address": "386 Scarborough Beach Rd",
        "suburb": "Innaloo",
        "price": 229.9,
        "lat": -31.902714,
        "lng": 115.799177
      },
      {
        "station": "BP Golden Gate",
        "brand": "BP",
        "address": "438 Hannan St",
        "suburb": "Kalgoorlie",
        "price": 229.9,
        "lat": -30.752976,
        "lng": 121.466012
      },
      {
        "station": "BP Kardinya",
        "brand": "BP",
        "address": "88 Gilbertson Rd",
        "suburb": "Kardinya",
        "price": 229.9,
        "lat": -32.068991,
        "lng": 115.819985
      },
      {
        "station": "BP Kewdale",
        "brand": "BP",
        "address": "549 Abernethy Rd",
        "suburb": "Kewdale",
        "price": 229.9,
        "lat": -31.981726,
        "lng": 115.975223
      },
      {
        "station": "BP Westgate",
        "brand": "BP",
        "address": "85 Queen Victoria St",
        "suburb": "Fremantle",
        "price": 229.9,
        "lat": -32.045365,
        "lng": 115.753085
      },
      {
        "station": "BP Connect Main Street",
        "brand": "BP",
        "address": "218 Main St",
        "suburb": "Osborne Park",
        "price": 229.9,
        "lat": -31.896277,
        "lng": 115.82855
      },
      {
        "station": "BP Connect Padbury",
        "brand": "BP",
        "address": "2 Warburton Ave",
        "suburb": "Padbury",
        "price": 229.9,
        "lat": -31.813708,
        "lng": 115.75932
      },
      {
        "station": "BP Connect Kwinana Hub",
        "brand": "BP",
        "address": "4 Chisham Ave",
        "suburb": "Kwinana Town Centre",
        "price": 229.9,
        "lat": -32.244379,
        "lng": 115.81264
      },
      {
        "station": "BP Connect Riverton",
        "brand": "BP",
        "address": "339 High Rd",
        "suburb": "Riverton",
        "price": 229.9,
        "lat": -32.038908,
        "lng": 115.904355
      },
      {
        "station": "BP Connect Rockingham Park",
        "brand": "BP",
        "address": "2 Chalgrove Ave",
        "suburb": "Rockingham",
        "price": 229.9,
        "lat": -32.289729,
        "lng": 115.741484
      },
      {
        "station": "BP Connect Palm Springs",
        "brand": "BP",
        "address": "214 Warnbro Sound Ave",
        "suburb": "Warnbro",
        "price": 229.9,
        "lat": -32.348315,
        "lng": 115.761753
      },
      {
        "station": "BP Connect Wembley",
        "brand": "BP",
        "address": "240 Cambridge St",
        "suburb": "Wembley",
        "price": 229.9,
        "lat": -31.940547,
        "lng": 115.820095
      },
      {
        "station": "BP 2go Burrendah",
        "brand": "BP",
        "address": "69 Pinetree Gully Rd",
        "suburb": "Willetton",
        "price": 229.9,
        "lat": -32.058316,
        "lng": 115.882114
      },
      {
        "station": "BP 2go Woodvale",
        "brand": "BP",
        "address": "941 Whitfords Ave",
        "suburb": "Woodvale",
        "price": 229.9,
        "lat": -31.799887,
        "lng": 115.795979
      },
      {
        "station": "BP Connect West Coast",
        "brand": "BP",
        "address": "11 Scarborough Beach Rd",
        "suburb": "Scarborough",
        "price": 229.9,
        "lat": -31.894578,
        "lng": 115.757975
      },
      {
        "station": "BP Sorrento",
        "brand": "BP",
        "address": "128 West Coast Dr",
        "suburb": "Sorrento",
        "price": 229.9,
        "lat": -31.832414,
        "lng": 115.74792
      },
      {
        "station": "BP Connect South Perth",
        "brand": "BP",
        "address": "9 Mends St",
        "suburb": "South Perth",
        "price": 229.9,
        "lat": -31.972713,
        "lng": 115.852043
      },
      {
        "station": "BP Connect Phoenix",
        "brand": "BP",
        "address": "222 Rockingham Rd",
        "suburb": "Spearwood",
        "price": 229.9,
        "lat": -32.093975,
        "lng": 115.783039
      },
      {
        "station": "BP The Lakes Roadhouse",
        "brand": "BP",
        "address": "13724 Great Eastern Hwy",
        "suburb": "The Lakes",
        "price": 229.9,
        "lat": -31.875285,
        "lng": 116.320602
      },
      {
        "station": "BP Halls Head",
        "brand": "BP",
        "address": "2 Guava Way",
        "suburb": "Halls Head",
        "price": 229.9,
        "lat": -32.550541,
        "lng": 115.701354
      },
      {
        "station": "BP Connect Merriwa",
        "brand": "BP",
        "address": "2 Ridgewood Bvd",
        "suburb": "Ridgewood",
        "price": 229.9,
        "lat": -31.670127,
        "lng": 115.726195
      },
      {
        "station": "Shell Lower King Liquor & General",
        "brand": "Shell",
        "address": "629 Lower King Rd",
        "suburb": "Lower King",
        "price": 229.9,
        "lat": -34.949189,
        "lng": 117.943697
      },
      {
        "station": "BP Kalgoorlie-Boulder Truckstop",
        "brand": "BP",
        "address": "248 Celebration Rd",
        "suburb": "Yilkari",
        "price": 229.9,
        "lat": -30.806356,
        "lng": 121.490051
      },
      {
        "station": "BP Connect Wellington Rd",
        "brand": "BP",
        "address": "261 Walter Rd West",
        "suburb": "Morley",
        "price": 229.9,
        "lat": -31.894607,
        "lng": 115.896666
      },
      {
        "station": "BP Connect Myaree",
        "brand": "BP",
        "address": "246 Leach Hwy",
        "suburb": "Myaree",
        "price": 229.9,
        "lat": -32.045815,
        "lng": 115.82024
      },
      {
        "station": "BP Rosegarden",
        "brand": "BP",
        "address": "129 Stirling Hwy",
        "suburb": "Nedlands",
        "price": 229.9,
        "lat": -31.979719,
        "lng": 115.798235
      },
      {
        "station": "BP 2go Noranda",
        "brand": "BP",
        "address": "40 Benara Rd",
        "suburb": "Noranda",
        "price": 229.9,
        "lat": -31.875859,
        "lng": 115.894223
      },
      {
        "station": "BP Connect North Perth",
        "brand": "BP",
        "address": "349 Charles St",
        "suburb": "North Perth",
        "price": 229.9,
        "lat": -31.926673,
        "lng": 115.851901
      },
      {
        "station": "BP Connect Carlisle",
        "brand": "BP",
        "address": "44 Archer St",
        "suburb": "Carlisle",
        "price": 229.9,
        "lat": -31.972228,
        "lng": 115.918797
      },
      {
        "station": "Gull Collie",
        "brand": "Gull",
        "address": "143 Throssell St",
        "suburb": "Collie",
        "price": 229.9,
        "lat": -33.359487,
        "lng": 116.150307
      },
      {
        "station": "BP Connect Currambine",
        "brand": "BP",
        "address": "2 Sunlander Dr",
        "suburb": "Currambine",
        "price": 229.9,
        "lat": -31.723736,
        "lng": 115.74642
      },
      {
        "station": "BP 2go Cannington",
        "brand": "BP",
        "address": "1443 Albany Hwy",
        "suburb": "Cannington",
        "price": 229.9,
        "lat": -32.025805,
        "lng": 115.941398
      },
      {
        "station": "Dunning's Northam",
        "brand": "Shell",
        "address": "38 Peel Tce",
        "suburb": "Northam",
        "price": 229.9,
        "lat": -31.649776,
        "lng": 116.677064
      },
      {
        "station": "BP Connect Beaumauris",
        "brand": "BP",
        "address": "2 Prendiville Ave",
        "suburb": "Ocean Reef",
        "price": 229.9,
        "lat": -31.752351,
        "lng": 115.74064
      },
      {
        "station": "BP Connect Thomsons Lake",
        "brand": "BP",
        "address": "810 Beeliar Dr",
        "suburb": "Success",
        "price": 229.9,
        "lat": -32.129169,
        "lng": 115.853726
      },
      {
        "station": "BP Connect East Perth",
        "brand": "BP",
        "address": "68-70 Brown St",
        "suburb": "East Perth",
        "price": 229.9,
        "lat": -31.95077,
        "lng": 115.876572
      },
      {
        "station": "BP Bibra Lake",
        "brand": "BP",
        "address": "2 Wellard St",
        "suburb": "Bibra Lake",
        "price": 229.9,
        "lat": -32.103888,
        "lng": 115.804171
      },
      {
        "station": "BP Baldivis Northbound Travel Centre",
        "brand": "BP",
        "address": "Lot 191 Paparone Rd",
        "suburb": "Baldivis",
        "price": 229.9,
        "lat": -32.309137,
        "lng": 115.830397
      },